[
  {
    "id": "259",
    "title": "VERONIKA DELIKATESE Zagreb, Špansko",
    "description": "",
    "street": "Trg 101. brigade 1",
    "city": "Zagreb",
    "state": "",
    "postal_code": "",
    "country": "53",
    "lat": "45.7985485",
    "lng": "15.9059966",
    "phone": "01\/3864-587",
    "fax": "",
    "email": "veronika.spansko@gmail.com",
    "website": "",
    "description_2": "",
    "logo_id": "2",
    "marker_id": "151",
    "is_disabled": "0",
    "open_hours": "{\"mon\":\"0\",\"tue\":\"0\",\"wed\":\"0\",\"thu\":\"0\",\"fri\":\"0\",\"sat\":\"0\",\"sun\":\"0\"}",
    "brand": "",
    "special": "",
    "custom": "[]",
    "ordr": "0",
    "slug": "veronika-delikatese-zagreb-spansko-zagreb",
    "lang": "",
    "pending": null,
    "created_on": "2024-11-06 03:51:26",
    "updated_on": null
  },
  {
    "id": "260",
    "title": "VERONIKA DELIKATESE Zagreb, Mlinovi",
    "description": "",
    "street": "Mlinovi 23",
    "city": "Zagreb",
    "state": "",
    "postal_code": "",
    "country": "53",
    "lat": "45.844431",
    "lng": "15.97147",
    "phone": "01\/4646-417",
    "fax": "",
    "email": "veronika.mlinovi@gmail.com",
    "website": "",
    "description_2": "",
    "logo_id": "2",
    "marker_id": "151",
    "is_disabled": "0",
    "open_hours": "{\"mon\":\"0\",\"tue\":\"0\",\"wed\":\"0\",\"thu\":\"0\",\"fri\":\"0\",\"sat\":\"0\",\"sun\":\"0\"}",
    "brand": "",
    "special": "",
    "custom": "[]",
    "ordr": "0",
    "slug": "veronika-delikatese-zagreb-mlinovi-zagreb",
    "lang": "",
    "pending": null,
    "created_on": "2024-11-06 03:51:26",
    "updated_on": null
  },
  {
    "id": "261",
    "title": "VERONIKA DELIKATESE Zagreb, Srednjaci",
    "description": "",
    "street": "Majstora Radonje 12",
    "city": "Zagreb",
    "state": "",
    "postal_code": "",
    "country": "53",
    "lat": "45.7917401",
    "lng": "15.9395491",
    "phone": "01\/3840-405",
    "fax": "",
    "email": "veronika.srednjaci@gmail.com",
    "website": "",
    "description_2": "",
    "logo_id": "2",
    "marker_id": "151",
    "is_disabled": "0",
    "open_hours": "{\"mon\":\"0\",\"tue\":\"0\",\"wed\":\"0\",\"thu\":\"0\",\"fri\":\"0\",\"sat\":\"0\",\"sun\":\"0\"}",
    "brand": "",
    "special": "",
    "custom": "[]",
    "ordr": "0",
    "slug": "veronika-delikatese-zagreb-srednjaci-zagreb",
    "lang": "",
    "pending": null,
    "created_on": "2024-11-06 03:51:26",
    "updated_on": null
  },
  {
    "id": "262",
    "title": "VERONIKA DELIKATESE Zagreb, Lanište",
    "description": "",
    "street": "Lanište 15c",
    "city": "Zagreb",
    "state": "",
    "postal_code": "",
    "country": "53",
    "lat": "45.7727473",
    "lng": "15.9447947",
    "phone": "01\/6542-352",
    "fax": "",
    "email": "veronika.laniste@gmail.com",
    "website": "",
    "description_2": "",
    "logo_id": "2",
    "marker_id": "151",
    "is_disabled": "0",
    "open_hours": "{\"mon\":\"0\",\"tue\":\"0\",\"wed\":\"0\",\"thu\":\"0\",\"fri\":\"0\",\"sat\":\"0\",\"sun\":\"0\"}",
    "brand": "",
    "special": "",
    "custom": "[]",
    "ordr": "0",
    "slug": "veronika-delikatese-zagreb-laniste-zagreb",
    "lang": "",
    "pending": null,
    "created_on": "2024-11-06 03:51:26",
    "updated_on": null
  },
  {
    "id": "263",
    "title": "VERONIKA DELIKATESE Zagreb, Središće",
    "description": "",
    "street": "Brune Bušića 7",
    "city": "Zagreb",
    "state": "",
    "postal_code": "",
    "country": "53",
    "lat": "45.7798833",
    "lng": "15.9858702",
    "phone": "01\/6637-656",
    "fax": "",
    "email": "veronika.sredisce@gmail.com",
    "website": "",
    "description_2": "",
    "logo_id": "2",
    "marker_id": "151",
    "is_disabled": "0",
    "open_hours": "{\"mon\":\"0\",\"tue\":\"0\",\"wed\":\"0\",\"thu\":\"0\",\"fri\":\"0\",\"sat\":\"0\",\"sun\":\"0\"}",
    "brand": "",
    "special": "",
    "custom": "[]",
    "ordr": "0",
    "slug": "veronika-delikatese-zagreb-sredisce-zagreb",
    "lang": "",
    "pending": null,
    "created_on": "2024-11-06 03:51:26",
    "updated_on": null
  },
  {
    "id": "264",
    "title": "VERONIKA DELIKATESE Zagreb, Dugave",
    "description": "",
    "street": "Školski prilaz 1",
    "city": "Zagreb",
    "state": "",
    "postal_code": "",
    "country": "53",
    "lat": "45.7645515",
    "lng": "15.9934614",
    "phone": "01\/6621-636",
    "fax": "",
    "email": "veronika.dugave@gmail.com",
    "website": "",
    "description_2": "",
    "logo_id": "2",
    "marker_id": "151",
    "is_disabled": "0",
    "open_hours": "{\"mon\":\"0\",\"tue\":\"0\",\"wed\":\"0\",\"thu\":\"0\",\"fri\":\"0\",\"sat\":\"0\",\"sun\":\"0\"}",
    "brand": "",
    "special": "",
    "custom": "[]",
    "ordr": "0",
    "slug": "veronika-delikatese-zagreb-dugave-zagreb",
    "lang": "",
    "pending": null,
    "created_on": "2024-11-06 03:51:26",
    "updated_on": null
  },
  {
    "id": "265",
    "title": "VERONIKA DELIKATESE Zagreb, Ilica",
    "description": "",
    "street": "Ilica 62",
    "city": "Zagreb",
    "state": "",
    "postal_code": "",
    "country": "53",
    "lat": "45.8132412",
    "lng": "15.9671775",
    "phone": "01\/4846-880",
    "fax": "",
    "email": "veronika.ilica@gmail.com",
    "website": "",
    "description_2": "",
    "logo_id": "2",
    "marker_id": "151",
    "is_disabled": "0",
    "open_hours": "{\"mon\":\"0\",\"tue\":\"0\",\"wed\":\"0\",\"thu\":\"0\",\"fri\":\"0\",\"sat\":\"0\",\"sun\":\"0\"}",
    "brand": "",
    "special": "",
    "custom": "[]",
    "ordr": "0",
    "slug": "veronika-delikatese-zagreb-ilica-zagreb",
    "lang": "",
    "pending": null,
    "created_on": "2024-11-06 03:51:26",
    "updated_on": null
  },
  {
    "id": "266",
    "title": "VERONIKA DELIKATESE Zagreb, Savska",
    "description": "",
    "street": "Savska 147",
    "city": "Zagreb",
    "state": "",
    "postal_code": "",
    "country": "53",
    "lat": "45.7911864",
    "lng": "15.9568429",
    "phone": "01\/5603-838",
    "fax": "",
    "email": "veronika.savska@gmail.com",
    "website": "",
    "description_2": "",
    "logo_id": "2",
    "marker_id": "151",
    "is_disabled": "0",
    "open_hours": "{\"mon\":\"0\",\"tue\":\"0\",\"wed\":\"0\",\"thu\":\"0\",\"fri\":\"0\",\"sat\":\"0\",\"sun\":\"0\"}",
    "brand": "",
    "special": "",
    "custom": "[]",
    "ordr": "0",
    "slug": "veronika-delikatese-zagreb-savska-zagreb",
    "lang": "",
    "pending": null,
    "created_on": "2024-11-06 03:51:26",
    "updated_on": null
  },
  {
    "id": "267",
    "title": "VERONIKA DELIKATESE Zagreb, Maksimir",
    "description": "",
    "street": "Petrova 167",
    "city": "Zagreb",
    "state": "",
    "postal_code": "",
    "country": "53",
    "lat": "45.8228632",
    "lng": "16.0122611",
    "phone": "01\/5999-477",
    "fax": "",
    "email": "veronika.maksimir@gmail.com",
    "website": "",
    "description_2": "",
    "logo_id": "2",
    "marker_id": "151",
    "is_disabled": "0",
    "open_hours": "{\"mon\":\"0\",\"tue\":\"0\",\"wed\":\"0\",\"thu\":\"0\",\"fri\":\"0\",\"sat\":\"0\",\"sun\":\"0\"}",
    "brand": "",
    "special": "",
    "custom": "[]",
    "ordr": "0",
    "slug": "veronika-delikatese-zagreb-maksimir-zagreb",
    "lang": "",
    "pending": null,
    "created_on": "2024-11-06 03:51:26",
    "updated_on": null
  },
  {
    "id": "268",
    "title": "VERONIKA DELIKATESE Zagreb, Jastrebarsko",
    "description": "",
    "street": "Strossmayerov trg 9",
    "city": "Zagreb",
    "state": "",
    "postal_code": "",
    "country": "53",
    "lat": "45.8084775",
    "lng": "15.978691",
    "phone": "01\/6293-031",
    "fax": "",
    "email": "veronikajaska@gmail.com",
    "website": "",
    "description_2": "",
    "logo_id": "2",
    "marker_id": "151",
    "is_disabled": "0",
    "open_hours": "{\"mon\":\"0\",\"tue\":\"0\",\"wed\":\"0\",\"thu\":\"0\",\"fri\":\"0\",\"sat\":\"0\",\"sun\":\"0\"}",
    "brand": "",
    "special": "",
    "custom": "[]",
    "ordr": "0",
    "slug": "veronika-delikatese-zagreb-jastrebarsko-zagreb",
    "lang": "",
    "pending": null,
    "created_on": "2024-11-06 03:51:26",
    "updated_on": null
  },
  {
    "id": "269",
    "title": "VERONIKA DELIKATESE Zagreb, Trešnjevka",
    "description": "",
    "street": "Ozaljska 52",
    "city": "Zagreb",
    "state": "",
    "postal_code": "",
    "country": "53",
    "lat": "45.7988479",
    "lng": "15.9480354",
    "phone": "01\/2339-458",
    "fax": "",
    "email": "veronika.tresnjevka@gmail.com",
    "website": "",
    "description_2": "",
    "logo_id": "2",
    "marker_id": "151",
    "is_disabled": "0",
    "open_hours": "{\"mon\":\"0\",\"tue\":\"0\",\"wed\":\"0\",\"thu\":\"0\",\"fri\":\"0\",\"sat\":\"0\",\"sun\":\"0\"}",
    "brand": "",
    "special": "",
    "custom": "[]",
    "ordr": "0",
    "slug": "veronika-delikatese-zagreb-tresnjevka-zagreb",
    "lang": "",
    "pending": null,
    "created_on": "2024-11-06 03:51:26",
    "updated_on": null
  },
  {
    "id": "270",
    "title": "VERONIKA DELIKATESE Zagreb, Gračani",
    "description": "",
    "street": "Kvintička 82",
    "city": "Zagreb",
    "state": "",
    "postal_code": "",
    "country": "53",
    "lat": "45.8609438",
    "lng": "15.9849612",
    "phone": "01\/2342-554",
    "fax": "",
    "email": "veronika.gracani@gmail.com",
    "website": "",
    "description_2": "",
    "logo_id": "2",
    "marker_id": "151",
    "is_disabled": "0",
    "open_hours": "{\"mon\":\"0\",\"tue\":\"0\",\"wed\":\"0\",\"thu\":\"0\",\"fri\":\"0\",\"sat\":\"0\",\"sun\":\"0\"}",
    "brand": "",
    "special": "",
    "custom": "[]",
    "ordr": "0",
    "slug": "veronika-delikatese-zagreb-gracani-zagreb",
    "lang": "",
    "pending": null,
    "created_on": "2024-11-06 03:51:26",
    "updated_on": null
  },
  {
    "id": "271",
    "title": "VERONIKA DELIKATESE Zagreb, Vrbani",
    "description": "",
    "street": "Malogorička ulica 52",
    "city": "Zagreb",
    "state": "",
    "postal_code": "",
    "country": "53",
    "lat": "45.7906433",
    "lng": "15.9118452",
    "phone": "01\/7882-688",
    "fax": "",
    "email": "veronika.vrbani3@gmail.com",
    "website": "",
    "description_2": "",
    "logo_id": "2",
    "marker_id": "151",
    "is_disabled": "0",
    "open_hours": "{\"mon\":\"0\",\"tue\":\"0\",\"wed\":\"0\",\"thu\":\"0\",\"fri\":\"0\",\"sat\":\"0\",\"sun\":\"0\"}",
    "brand": "",
    "special": "",
    "custom": "[]",
    "ordr": "0",
    "slug": "veronika-delikatese-zagreb-vrbani-zagreb",
    "lang": "",
    "pending": null,
    "created_on": "2024-11-06 03:51:26",
    "updated_on": null
  },
  {
    "id": "272",
    "title": "VERONIKA DELIKATESE Zagreb, Šalata",
    "description": "",
    "street": "Bijenička ulica br.10",
    "city": "Zagreb",
    "state": "",
    "postal_code": "",
    "country": "53",
    "lat": "45.8246621",
    "lng": "15.9851234",
    "phone": "01\/2305-982",
    "fax": "",
    "email": "veronika.salatazg@gmail.com",
    "website": "",
    "description_2": "",
    "logo_id": "2",
    "marker_id": "151",
    "is_disabled": "0",
    "open_hours": "{\"mon\":\"0\",\"tue\":\"0\",\"wed\":\"0\",\"thu\":\"0\",\"fri\":\"0\",\"sat\":\"0\",\"sun\":\"0\"}",
    "brand": "",
    "special": "",
    "custom": "[]",
    "ordr": "0",
    "slug": "veronika-delikatese-zagreb-salata-zagreb",
    "lang": "",
    "pending": null,
    "created_on": "2024-11-06 03:51:26",
    "updated_on": null
  },
  {
    "id": "273",
    "title": "MINI MLJEKARA VERONIKA Rijeka, Tržnica",
    "description": "",
    "street": "Zagrebačka 18b",
    "city": "Rijeka",
    "state": "",
    "postal_code": "",
    "country": "53",
    "lat": "45.3246947",
    "lng": "14.4419745",
    "phone": "051\/325-713",
    "fax": "",
    "email": "veronika.lisinski.rijeka@gmail.com",
    "website": "",
    "description_2": "",
    "logo_id": "2",
    "marker_id": "151",
    "is_disabled": "0",
    "open_hours": "{\"mon\":\"0\",\"tue\":\"0\",\"wed\":\"0\",\"thu\":\"0\",\"fri\":\"0\",\"sat\":\"0\",\"sun\":\"0\"}",
    "brand": "",
    "special": "",
    "custom": "[]",
    "ordr": "0",
    "slug": "mini-mljekara-veronika-rijeka-trznica-rijeka",
    "lang": "",
    "pending": null,
    "created_on": "2024-11-06 03:51:26",
    "updated_on": null
  },
  {
    "id": "274",
    "title": "MINI MLJEKARA VERONIKA Rijeka, Brajda",
    "description": "",
    "street": "a.Manzonia 4b",
    "city": "Rijeka",
    "state": "",
    "postal_code": "",
    "country": "53",
    "lat": "45.3307099",
    "lng": "14.4330918",
    "phone": "051\/293-654",
    "fax": "",
    "email": "veronika.manzoni.rijeka@gmail.com",
    "website": "",
    "description_2": "",
    "logo_id": "2",
    "marker_id": "151",
    "is_disabled": "0",
    "open_hours": "{\"mon\":\"0\",\"tue\":\"0\",\"wed\":\"0\",\"thu\":\"0\",\"fri\":\"0\",\"sat\":\"0\",\"sun\":\"0\"}",
    "brand": "",
    "special": "",
    "custom": "[]",
    "ordr": "0",
    "slug": "mini-mljekara-veronika-rijeka-brajda-rijeka",
    "lang": "",
    "pending": null,
    "created_on": "2024-11-06 03:51:26",
    "updated_on": null
  },
  {
    "id": "275",
    "title": "MINI MLJEKARA VERONIKA Rijeka, Martinkovac",
    "description": "",
    "street": "Martinkovac 150",
    "city": "Rijeka",
    "state": "",
    "postal_code": "",
    "country": "53",
    "lat": "45.3521678",
    "lng": "14.365812",
    "phone": "051\/504-688",
    "fax": "",
    "email": "veronika.martinkovac.rijeka@gmail.com",
    "website": "",
    "description_2": "",
    "logo_id": "2",
    "marker_id": "151",
    "is_disabled": "0",
    "open_hours": "{\"mon\":\"0\",\"tue\":\"0\",\"wed\":\"0\",\"thu\":\"0\",\"fri\":\"0\",\"sat\":\"0\",\"sun\":\"0\"}",
    "brand": "",
    "special": "",
    "custom": "[]",
    "ordr": "0",
    "slug": "mini-mljekara-veronika-rijeka-martinkovac-rijeka",
    "lang": "",
    "pending": null,
    "created_on": "2024-11-06 03:51:26",
    "updated_on": null
  },
  {
    "id": "276",
    "title": "MINI MLJEKARA VERONIKA Rijeka, Matulji",
    "description": "",
    "street": "Kvarnerska cesta 73",
    "city": "Rijeka",
    "state": "",
    "postal_code": "",
    "country": "53",
    "lat": "45.3571293",
    "lng": "14.3353327",
    "phone": "051\/211-127",
    "fax": "",
    "email": "delikatese.veronika.rijeka@gmail.com",
    "website": "",
    "description_2": "",
    "logo_id": "2",
    "marker_id": "151",
    "is_disabled": "0",
    "open_hours": "{\"mon\":\"0\",\"tue\":\"0\",\"wed\":\"0\",\"thu\":\"0\",\"fri\":\"0\",\"sat\":\"0\",\"sun\":\"0\"}",
    "brand": "",
    "special": "",
    "custom": "[]",
    "ordr": "0",
    "slug": "mini-mljekara-veronika-rijeka-matulji-rijeka",
    "lang": "",
    "pending": null,
    "created_on": "2024-11-06 03:51:26",
    "updated_on": null
  },
  {
    "id": "277",
    "title": "MINI MLJEKARA VERONIKA Rijeka, Čavle",
    "description": "",
    "street": "Čavle 17",
    "city": "Rijeka",
    "state": "",
    "postal_code": "",
    "country": "53",
    "lat": "45.3580583",
    "lng": "14.4848942",
    "phone": "051\/244-604",
    "fax": "",
    "email": "veronika.cavle@gmail.com",
    "website": "",
    "description_2": "",
    "logo_id": "2",
    "marker_id": "151",
    "is_disabled": "0",
    "open_hours": "{\"mon\":\"0\",\"tue\":\"0\",\"wed\":\"0\",\"thu\":\"0\",\"fri\":\"0\",\"sat\":\"0\",\"sun\":\"0\"}",
    "brand": "",
    "special": "",
    "custom": "[]",
    "ordr": "0",
    "slug": "mini-mljekara-veronika-rijeka-cavle-rijeka",
    "lang": "",
    "pending": null,
    "created_on": "2024-11-06 03:51:26",
    "updated_on": null
  },
  {
    "id": "278",
    "title": "MINI MLJEKARA VERONIKA Rijeka, Vežica",
    "description": "",
    "street": "Drage Gervaisa 39",
    "city": "Rijeka",
    "state": "",
    "postal_code": "",
    "country": "53",
    "lat": "45.3198462",
    "lng": "14.4685546",
    "phone": "099\/4902907",
    "fax": "",
    "email": "veronika.vezica@gmail.com",
    "website": "",
    "description_2": "",
    "logo_id": "2",
    "marker_id": "151",
    "is_disabled": "0",
    "open_hours": "{\"mon\":\"0\",\"tue\":\"0\",\"wed\":\"0\",\"thu\":\"0\",\"fri\":\"0\",\"sat\":\"0\",\"sun\":\"0\"}",
    "brand": "",
    "special": "",
    "custom": "[]",
    "ordr": "0",
    "slug": "mini-mljekara-veronika-rijeka-vezica-rijeka",
    "lang": "",
    "pending": null,
    "created_on": "2024-11-06 03:51:26",
    "updated_on": null
  },
  {
    "id": "279",
    "title": "MINI MLJEKARA VERONIKA Rijeka, Viškovo",
    "description": "",
    "street": "Viškovo 122",
    "city": "Rijeka",
    "state": "",
    "postal_code": "",
    "country": "53",
    "lat": "45.3791472",
    "lng": "14.3862893",
    "phone": "051\/246797",
    "fax": "",
    "email": "veronika.viskovo@gmail.com",
    "website": "",
    "description_2": "",
    "logo_id": "2",
    "marker_id": "151",
    "is_disabled": "0",
    "open_hours": "{\"mon\":\"0\",\"tue\":\"0\",\"wed\":\"0\",\"thu\":\"0\",\"fri\":\"0\",\"sat\":\"0\",\"sun\":\"0\"}",
    "brand": "",
    "special": "",
    "custom": "[]",
    "ordr": "0",
    "slug": "mini-mljekara-veronika-rijeka-viskovo-rijeka",
    "lang": "",
    "pending": null,
    "created_on": "2024-11-06 03:51:26",
    "updated_on": null
  },
  {
    "id": "280",
    "title": "MINI MLJEKARA VERONIKA Rijeka, Crikvenica",
    "description": "",
    "street": "Braće Brozičević 10",
    "city": "Rijeka",
    "state": "",
    "postal_code": "",
    "country": "53",
    "lat": "45.3270631",
    "lng": "14.442176",
    "phone": "051\/504-663",
    "fax": "",
    "email": "veronika.crikvenica@gmail.com",
    "website": "",
    "description_2": "",
    "logo_id": "2",
    "marker_id": "151",
    "is_disabled": "0",
    "open_hours": "{\"mon\":\"0\",\"tue\":\"0\",\"wed\":\"0\",\"thu\":\"0\",\"fri\":\"0\",\"sat\":\"0\",\"sun\":\"0\"}",
    "brand": "",
    "special": "",
    "custom": "[]",
    "ordr": "0",
    "slug": "mini-mljekara-veronika-rijeka-crikvenica-rijeka",
    "lang": "",
    "pending": null,
    "created_on": "2024-11-06 03:51:26",
    "updated_on": null
  },
  {
    "id": "281",
    "title": "MINI MLJEKARA VERONIKA Rijeka, Marinići",
    "description": "",
    "street": "Marinići - plac",
    "city": "Rijeka",
    "state": "",
    "postal_code": "",
    "country": "53",
    "lat": "45.3652354",
    "lng": "14.3926584",
    "phone": "051\/403-367",
    "fax": "",
    "email": "veronika.marinici@gmail.hr",
    "website": "",
    "description_2": "",
    "logo_id": "2",
    "marker_id": "151",
    "is_disabled": "0",
    "open_hours": "{\"mon\":\"0\",\"tue\":\"0\",\"wed\":\"0\",\"thu\":\"0\",\"fri\":\"0\",\"sat\":\"0\",\"sun\":\"0\"}",
    "brand": "",
    "special": "",
    "custom": "[]",
    "ordr": "0",
    "slug": "mini-mljekara-veronika-rijeka-marinici-rijeka",
    "lang": "",
    "pending": null,
    "created_on": "2024-11-06 03:51:26",
    "updated_on": null
  },
  {
    "id": "282",
    "title": "MINI MLJEKARA VERONIKA Split, City Center ONE Split",
    "description": "",
    "street": "Vukovarska 207",
    "city": "Split",
    "state": "",
    "postal_code": "",
    "country": "53",
    "lat": "43.5134555",
    "lng": "16.5029202",
    "phone": "091 610 6656",
    "fax": "",
    "email": "veronika.citysplit@gmail.com",
    "website": "",
    "description_2": "",
    "logo_id": "2",
    "marker_id": "151",
    "is_disabled": "0",
    "open_hours": "{\"mon\":\"0\",\"tue\":\"0\",\"wed\":\"0\",\"thu\":\"0\",\"fri\":\"0\",\"sat\":\"0\",\"sun\":\"0\"}",
    "brand": "",
    "special": "",
    "custom": "[]",
    "ordr": "0",
    "slug": "mini-mljekara-veronika-split-city-center-one-split-split",
    "lang": "",
    "pending": null,
    "created_on": "2024-11-06 03:51:26",
    "updated_on": null
  },
  {
    "id": "283",
    "title": "MINI MLJEKARA VERONIKA Split, Poljička",
    "description": "",
    "street": "Poljička cesta 9",
    "city": "Split",
    "state": "",
    "postal_code": "",
    "country": "53",
    "lat": "43.5056072",
    "lng": "16.45707",
    "phone": "021 635 039",
    "fax": "",
    "email": "ceronika.poljicka@gmail.com",
    "website": "",
    "description_2": "",
    "logo_id": "2",
    "marker_id": "151",
    "is_disabled": "0",
    "open_hours": "{\"mon\":\"0\",\"tue\":\"0\",\"wed\":\"0\",\"thu\":\"0\",\"fri\":\"0\",\"sat\":\"0\",\"sun\":\"0\"}",
    "brand": "",
    "special": "",
    "custom": "[]",
    "ordr": "0",
    "slug": "mini-mljekara-veronika-split-poljicka-split",
    "lang": "",
    "pending": null,
    "created_on": "2024-11-06 03:51:26",
    "updated_on": null
  },
  {
    "id": "284",
    "title": "MINI MLJEKARA VERONIKA Split, Sućidar",
    "description": "",
    "street": "Vinkovačka ulica 2",
    "city": "Split",
    "state": "",
    "postal_code": "",
    "country": "53",
    "lat": "43.5140916",
    "lng": "16.4548799",
    "phone": "091 610 6696",
    "fax": "",
    "email": "",
    "website": "",
    "description_2": "",
    "logo_id": "2",
    "marker_id": "151",
    "is_disabled": "0",
    "open_hours": "{\"mon\":\"0\",\"tue\":\"0\",\"wed\":\"0\",\"thu\":\"0\",\"fri\":\"0\",\"sat\":\"0\",\"sun\":\"0\"}",
    "brand": "",
    "special": "",
    "custom": "[]",
    "ordr": "0",
    "slug": "mini-mljekara-veronika-split-sucidar-split",
    "lang": "",
    "pending": null,
    "created_on": "2024-11-06 03:51:26",
    "updated_on": null
  },
  {
    "id": "285",
    "title": "MINI MLJEKARA VERONIKA Split, Podhodnik",
    "description": "",
    "street": "Ruđera Boškovića 16a",
    "city": "Split",
    "state": "",
    "postal_code": "",
    "country": "53",
    "lat": "43.5072262",
    "lng": "16.4661273",
    "phone": "091 610 6633",
    "fax": "",
    "email": "veronika.pothodnik@gmail.com",
    "website": "",
    "description_2": "",
    "logo_id": "2",
    "marker_id": "151",
    "is_disabled": "0",
    "open_hours": "{\"mon\":\"0\",\"tue\":\"0\",\"wed\":\"0\",\"thu\":\"0\",\"fri\":\"0\",\"sat\":\"0\",\"sun\":\"0\"}",
    "brand": "",
    "special": "",
    "custom": "[]",
    "ordr": "0",
    "slug": "mini-mljekara-veronika-split-podhodnik-split",
    "lang": "",
    "pending": null,
    "created_on": "2024-11-06 03:51:26",
    "updated_on": null
  },
  {
    "id": "286",
    "title": "MINI MLJEKARA VERONIKA Split, JOKER",
    "description": "",
    "street": "Put Brodarice 6",
    "city": "Split",
    "state": "",
    "postal_code": "",
    "country": "53",
    "lat": "43.5193638",
    "lng": "16.4459429",
    "phone": "099 589 1775",
    "fax": "",
    "email": "veronika.joker.split@gmail.com",
    "website": "",
    "description_2": "",
    "logo_id": "2",
    "marker_id": "151",
    "is_disabled": "0",
    "open_hours": "{\"mon\":\"0\",\"tue\":\"0\",\"wed\":\"0\",\"thu\":\"0\",\"fri\":\"0\",\"sat\":\"0\",\"sun\":\"0\"}",
    "brand": "",
    "special": "",
    "custom": "[]",
    "ordr": "0",
    "slug": "mini-mljekara-veronika-split-joker-split",
    "lang": "",
    "pending": null,
    "created_on": "2024-11-06 03:51:26",
    "updated_on": null
  },
  {
    "id": "287",
    "title": "STUDENAC Baška Voda, Ulica Tri ceste 3B",
    "description": "",
    "street": "Ulica Tri ceste 3B",
    "city": "Baška Voda",
    "state": "",
    "postal_code": "21320",
    "country": "53",
    "lat": "43.3541308",
    "lng": "16.9558058",
    "phone": "091-420-9664",
    "fax": "",
    "email": "",
    "website": "",
    "description_2": "",
    "logo_id": "3",
    "marker_id": "151",
    "is_disabled": "0",
    "open_hours": "{\"mon\":\"0\",\"tue\":\"0\",\"wed\":\"0\",\"thu\":\"0\",\"fri\":\"0\",\"sat\":\"0\",\"sun\":\"0\"}",
    "brand": "",
    "special": "",
    "custom": "[]",
    "ordr": "0",
    "slug": "studenac-baska-voda-ulica-tri-ceste-3b-baska-voda",
    "lang": "",
    "pending": null,
    "created_on": "2024-11-06 03:51:26",
    "updated_on": null
  },
  {
    "id": "288",
    "title": "STUDENAC Baška Voda, Ulica Blato 1",
    "description": "",
    "street": "Ulica Blato 1",
    "city": "Baška Voda",
    "state": "",
    "postal_code": "21320",
    "country": "53",
    "lat": "43.358706",
    "lng": "16.9478385",
    "phone": "091-489-0672",
    "fax": "",
    "email": "",
    "website": "",
    "description_2": "",
    "logo_id": "3",
    "marker_id": "151",
    "is_disabled": "0",
    "open_hours": "{\"mon\":\"0\",\"tue\":\"0\",\"wed\":\"0\",\"thu\":\"0\",\"fri\":\"0\",\"sat\":\"0\",\"sun\":\"0\"}",
    "brand": "",
    "special": "",
    "custom": "[]",
    "ordr": "0",
    "slug": "studenac-baska-voda-ulica-blato-1-baska-voda",
    "lang": "",
    "pending": null,
    "created_on": "2024-11-06 03:51:26",
    "updated_on": null
  },
  {
    "id": "289",
    "title": "STUDENAC Blato, Prigradica 54",
    "description": "",
    "street": "Prigradica 54",
    "city": "Blato",
    "state": "",
    "postal_code": "20271",
    "country": "53",
    "lat": "42.9664112",
    "lng": "16.8118693",
    "phone": "091-282-8319",
    "fax": "",
    "email": "",
    "website": "",
    "description_2": "",
    "logo_id": "3",
    "marker_id": "151",
    "is_disabled": "0",
    "open_hours": "{\"mon\":\"0\",\"tue\":\"0\",\"wed\":\"0\",\"thu\":\"0\",\"fri\":\"0\",\"sat\":\"0\",\"sun\":\"0\"}",
    "brand": "",
    "special": "",
    "custom": "[]",
    "ordr": "0",
    "slug": "studenac-blato-prigradica-54-blato",
    "lang": "",
    "pending": null,
    "created_on": "2024-11-06 03:51:26",
    "updated_on": null
  },
  {
    "id": "290",
    "title": "STUDENAC Bol, Uz Pjacu 13",
    "description": "",
    "street": "Uz Pjacu 13",
    "city": "Bol",
    "state": "",
    "postal_code": "21420",
    "country": "53",
    "lat": "43.2625173",
    "lng": "16.6565788",
    "phone": "091-611-1682",
    "fax": "",
    "email": "",
    "website": "",
    "description_2": "",
    "logo_id": "3",
    "marker_id": "151",
    "is_disabled": "0",
    "open_hours": "{\"mon\":\"0\",\"tue\":\"0\",\"wed\":\"0\",\"thu\":\"0\",\"fri\":\"0\",\"sat\":\"0\",\"sun\":\"0\"}",
    "brand": "",
    "special": "",
    "custom": "[]",
    "ordr": "0",
    "slug": "studenac-bol-uz-pjacu-13-bol",
    "lang": "",
    "pending": null,
    "created_on": "2024-11-06 03:51:26",
    "updated_on": null
  },
  {
    "id": "291",
    "title": "STUDENAC Bol, Donje Podbarje 1A",
    "description": "",
    "street": "Donje Podbarje 1A",
    "city": "Bol",
    "state": "",
    "postal_code": "21420",
    "country": "53",
    "lat": "43.2648645",
    "lng": "16.6484808",
    "phone": "091-611-1740",
    "fax": "",
    "email": "",
    "website": "",
    "description_2": "",
    "logo_id": "3",
    "marker_id": "151",
    "is_disabled": "0",
    "open_hours": "{\"mon\":\"0\",\"tue\":\"0\",\"wed\":\"0\",\"thu\":\"0\",\"fri\":\"0\",\"sat\":\"0\",\"sun\":\"0\"}",
    "brand": "",
    "special": "",
    "custom": "[]",
    "ordr": "0",
    "slug": "studenac-bol-donje-podbarje-1a-bol",
    "lang": "",
    "pending": null,
    "created_on": "2024-11-06 03:51:26",
    "updated_on": null
  },
  {
    "id": "292",
    "title": "STUDENAC Bol, Hrv. preporoda 1 B",
    "description": "",
    "street": "Hrv. preporoda 1 B",
    "city": "Bol",
    "state": "",
    "postal_code": "21420",
    "country": "53",
    "lat": "43.2621281",
    "lng": "16.6607988",
    "phone": "091-603-2348",
    "fax": "",
    "email": "",
    "website": "",
    "description_2": "",
    "logo_id": "3",
    "marker_id": "151",
    "is_disabled": "0",
    "open_hours": "{\"mon\":\"0\",\"tue\":\"0\",\"wed\":\"0\",\"thu\":\"0\",\"fri\":\"0\",\"sat\":\"0\",\"sun\":\"0\"}",
    "brand": "",
    "special": "",
    "custom": "[]",
    "ordr": "0",
    "slug": "studenac-bol-hrv-preporoda-1-b-bol",
    "lang": "",
    "pending": null,
    "created_on": "2024-11-06 03:51:26",
    "updated_on": null
  },
  {
    "id": "293",
    "title": "STUDENAC Božava, Božava 83",
    "description": "",
    "street": "Božava 83",
    "city": "Božava",
    "state": "",
    "postal_code": "23286",
    "country": "53",
    "lat": "44.1403825",
    "lng": "14.9063151",
    "phone": "091-150-6405",
    "fax": "",
    "email": "",
    "website": "",
    "description_2": "",
    "logo_id": "3",
    "marker_id": "151",
    "is_disabled": "0",
    "open_hours": "{\"mon\":\"0\",\"tue\":\"0\",\"wed\":\"0\",\"thu\":\"0\",\"fri\":\"0\",\"sat\":\"0\",\"sun\":\"0\"}",
    "brand": "",
    "special": "",
    "custom": "[]",
    "ordr": "0",
    "slug": "studenac-bozava-bozava-83-bozava",
    "lang": "",
    "pending": null,
    "created_on": "2024-11-06 03:51:26",
    "updated_on": null
  },
  {
    "id": "294",
    "title": "STUDENAC Cavtat, Trumbićev put 8",
    "description": "",
    "street": "Trumbićev put 8",
    "city": "Cavtat",
    "state": "",
    "postal_code": "20210",
    "country": "53",
    "lat": "42.5809102",
    "lng": "18.2180823",
    "phone": "091 282 8619",
    "fax": "",
    "email": "",
    "website": "",
    "description_2": "",
    "logo_id": "3",
    "marker_id": "151",
    "is_disabled": "0",
    "open_hours": "{\"mon\":\"0\",\"tue\":\"0\",\"wed\":\"0\",\"thu\":\"0\",\"fri\":\"0\",\"sat\":\"0\",\"sun\":\"0\"}",
    "brand": "",
    "special": "",
    "custom": "[]",
    "ordr": "0",
    "slug": "studenac-cavtat-trumbicev-put-8-cavtat",
    "lang": "",
    "pending": null,
    "created_on": "2024-11-06 03:51:26",
    "updated_on": null
  },
  {
    "id": "295",
    "title": "STUDENAC Cavtat, Put Uskoplja 3B",
    "description": "",
    "street": "Put Uskoplja 3B",
    "city": "Cavtat",
    "state": "",
    "postal_code": "20210",
    "country": "53",
    "lat": "42.5783137",
    "lng": "18.240884",
    "phone": "091 282 8621",
    "fax": "",
    "email": "",
    "website": "",
    "description_2": "",
    "logo_id": "3",
    "marker_id": "151",
    "is_disabled": "0",
    "open_hours": "{\"mon\":\"0\",\"tue\":\"0\",\"wed\":\"0\",\"thu\":\"0\",\"fri\":\"0\",\"sat\":\"0\",\"sun\":\"0\"}",
    "brand": "",
    "special": "",
    "custom": "[]",
    "ordr": "0",
    "slug": "studenac-cavtat-put-uskoplja-3b-cavtat",
    "lang": "",
    "pending": null,
    "created_on": "2024-11-06 03:51:26",
    "updated_on": null
  },
  {
    "id": "296",
    "title": "STUDENAC Cavtat, Trumbićev put 5",
    "description": "",
    "street": "Trumbićev put 5",
    "city": "Cavtat",
    "state": "",
    "postal_code": "20210",
    "country": "53",
    "lat": "42.5808877",
    "lng": "18.2181984",
    "phone": "091-282-8007",
    "fax": "",
    "email": "",
    "website": "",
    "description_2": "",
    "logo_id": "3",
    "marker_id": "151",
    "is_disabled": "0",
    "open_hours": "{\"mon\":\"0\",\"tue\":\"0\",\"wed\":\"0\",\"thu\":\"0\",\"fri\":\"0\",\"sat\":\"0\",\"sun\":\"0\"}",
    "brand": "",
    "special": "",
    "custom": "[]",
    "ordr": "0",
    "slug": "studenac-cavtat-trumbicev-put-5-cavtat",
    "lang": "",
    "pending": null,
    "created_on": "2024-11-06 03:51:26",
    "updated_on": null
  },
  {
    "id": "297",
    "title": "STUDENAC Dobrodol, Vugrovečka cesta 62",
    "description": "",
    "street": "Vugrovečka cesta 62",
    "city": "Dobrodol",
    "state": "",
    "postal_code": "10360",
    "country": "53",
    "lat": "45.8543649",
    "lng": "16.1128834",
    "phone": "091 282 8857",
    "fax": "",
    "email": "",
    "website": "",
    "description_2": "",
    "logo_id": "3",
    "marker_id": "151",
    "is_disabled": "0",
    "open_hours": "{\"mon\":\"0\",\"tue\":\"0\",\"wed\":\"0\",\"thu\":\"0\",\"fri\":\"0\",\"sat\":\"0\",\"sun\":\"0\"}",
    "brand": "",
    "special": "",
    "custom": "[]",
    "ordr": "0",
    "slug": "studenac-dobrodol-vugrovecka-cesta-62-dobrodol",
    "lang": "",
    "pending": null,
    "created_on": "2024-11-06 03:51:26",
    "updated_on": null
  },
  {
    "id": "298",
    "title": "STUDENAC Drašnice, Drašnice 183",
    "description": "",
    "street": "Drašnice 183",
    "city": "Drašnice",
    "state": "",
    "postal_code": "21327",
    "country": "53",
    "lat": "43.2137189",
    "lng": "17.1124352",
    "phone": "091-282-0071",
    "fax": "",
    "email": "",
    "website": "",
    "description_2": "",
    "logo_id": "3",
    "marker_id": "151",
    "is_disabled": "0",
    "open_hours": "{\"mon\":\"0\",\"tue\":\"0\",\"wed\":\"0\",\"thu\":\"0\",\"fri\":\"0\",\"sat\":\"0\",\"sun\":\"0\"}",
    "brand": "",
    "special": "",
    "custom": "[]",
    "ordr": "0",
    "slug": "studenac-drasnice-drasnice-183-drasnice",
    "lang": "",
    "pending": null,
    "created_on": "2024-11-06 03:51:26",
    "updated_on": null
  },
  {
    "id": "299",
    "title": "STUDENAC Drvenik, Donja Vala 76",
    "description": "",
    "street": "Donja Vala 76",
    "city": "Drvenik",
    "state": "",
    "postal_code": "21333",
    "country": "53",
    "lat": "43.1497275",
    "lng": "17.2619465",
    "phone": "091-282-8460",
    "fax": "",
    "email": "",
    "website": "",
    "description_2": "",
    "logo_id": "3",
    "marker_id": "151",
    "is_disabled": "0",
    "open_hours": "{\"mon\":\"0\",\"tue\":\"0\",\"wed\":\"0\",\"thu\":\"0\",\"fri\":\"0\",\"sat\":\"0\",\"sun\":\"0\"}",
    "brand": "",
    "special": "",
    "custom": "[]",
    "ordr": "0",
    "slug": "studenac-drvenik-donja-vala-76-drvenik",
    "lang": "",
    "pending": null,
    "created_on": "2024-11-06 03:51:26",
    "updated_on": null
  },
  {
    "id": "300",
    "title": "STUDENAC Dubrovnik, Iva Vojnovića 6",
    "description": "",
    "street": "Iva Vojnovića 6",
    "city": "Dubrovnik",
    "state": "",
    "postal_code": "20000",
    "country": "53",
    "lat": "42.6470661",
    "lng": "18.0906877",
    "phone": "091-282-8074",
    "fax": "",
    "email": "",
    "website": "",
    "description_2": "",
    "logo_id": "3",
    "marker_id": "151",
    "is_disabled": "0",
    "open_hours": "{\"mon\":\"0\",\"tue\":\"0\",\"wed\":\"0\",\"thu\":\"0\",\"fri\":\"0\",\"sat\":\"0\",\"sun\":\"0\"}",
    "brand": "",
    "special": "",
    "custom": "[]",
    "ordr": "0",
    "slug": "studenac-dubrovnik-iva-vojnovica-6-dubrovnik",
    "lang": "",
    "pending": null,
    "created_on": "2024-11-06 03:51:26",
    "updated_on": null
  },
  {
    "id": "301",
    "title": "STUDENAC Dubrovnik, Ulica Riječka 9",
    "description": "",
    "street": "Ulica Riječka 9",
    "city": "Dubrovnik",
    "state": "",
    "postal_code": "20000",
    "country": "53",
    "lat": "42.6609343",
    "lng": "18.0774584",
    "phone": "091 282 8643",
    "fax": "",
    "email": "",
    "website": "",
    "description_2": "",
    "logo_id": "3",
    "marker_id": "151",
    "is_disabled": "0",
    "open_hours": "{\"mon\":\"0\",\"tue\":\"0\",\"wed\":\"0\",\"thu\":\"0\",\"fri\":\"0\",\"sat\":\"0\",\"sun\":\"0\"}",
    "brand": "",
    "special": "",
    "custom": "[]",
    "ordr": "0",
    "slug": "studenac-dubrovnik-ulica-rijecka-9-dubrovnik",
    "lang": "",
    "pending": null,
    "created_on": "2024-11-06 03:51:26",
    "updated_on": null
  },
  {
    "id": "302",
    "title": "STUDENAC Dubrovnik, Zagrebačka ulica 68",
    "description": "",
    "street": "Zagrebačka ulica 68",
    "city": "Dubrovnik",
    "state": "",
    "postal_code": "20000",
    "country": "53",
    "lat": "42.6462698",
    "lng": "18.1020584",
    "phone": "091-320-9075",
    "fax": "",
    "email": "",
    "website": "",
    "description_2": "",
    "logo_id": "3",
    "marker_id": "151",
    "is_disabled": "0",
    "open_hours": "{\"mon\":\"0\",\"tue\":\"0\",\"wed\":\"0\",\"thu\":\"0\",\"fri\":\"0\",\"sat\":\"0\",\"sun\":\"0\"}",
    "brand": "",
    "special": "",
    "custom": "[]",
    "ordr": "0",
    "slug": "studenac-dubrovnik-zagrebacka-ulica-68-dubrovnik",
    "lang": "",
    "pending": null,
    "created_on": "2024-11-06 03:51:26",
    "updated_on": null
  },
  {
    "id": "303",
    "title": "STUDENAC Dubrovnik, Obala Stjepana Radića 25",
    "description": "",
    "street": "Obala Stjepana Radića 25",
    "city": "Dubrovnik",
    "state": "",
    "postal_code": "20000",
    "country": "53",
    "lat": "42.6570163",
    "lng": "18.0885343",
    "phone": "091-320-9029",
    "fax": "",
    "email": "",
    "website": "",
    "description_2": "",
    "logo_id": "3",
    "marker_id": "151",
    "is_disabled": "0",
    "open_hours": "{\"mon\":\"0\",\"tue\":\"0\",\"wed\":\"0\",\"thu\":\"0\",\"fri\":\"0\",\"sat\":\"0\",\"sun\":\"0\"}",
    "brand": "",
    "special": "",
    "custom": "[]",
    "ordr": "0",
    "slug": "studenac-dubrovnik-obala-stjepana-radica-25-dubrovnik",
    "lang": "",
    "pending": null,
    "created_on": "2024-11-06 03:51:26",
    "updated_on": null
  },
  {
    "id": "304",
    "title": "STUDENAC Dubrovnik, Nikole Tesle 6",
    "description": "",
    "street": "Nikole Tesle 6",
    "city": "Dubrovnik",
    "state": "",
    "postal_code": "20000",
    "country": "53",
    "lat": "42.6529288",
    "lng": "18.0861665",
    "phone": "091-282-8052",
    "fax": "",
    "email": "",
    "website": "",
    "description_2": "",
    "logo_id": "3",
    "marker_id": "151",
    "is_disabled": "0",
    "open_hours": "{\"mon\":\"0\",\"tue\":\"0\",\"wed\":\"0\",\"thu\":\"0\",\"fri\":\"0\",\"sat\":\"0\",\"sun\":\"0\"}",
    "brand": "",
    "special": "",
    "custom": "[]",
    "ordr": "0",
    "slug": "studenac-dubrovnik-nikole-tesle-6-dubrovnik",
    "lang": "",
    "pending": null,
    "created_on": "2024-11-06 03:51:26",
    "updated_on": null
  },
  {
    "id": "305",
    "title": "STUDENAC Dubrovnik, Mohovo 17",
    "description": "",
    "street": "Mohovo 17",
    "city": "Dubrovnik",
    "state": "",
    "postal_code": "20235",
    "country": "53",
    "lat": "42.699813",
    "lng": "18.0389039",
    "phone": "091-611-1735",
    "fax": "",
    "email": "",
    "website": "",
    "description_2": "",
    "logo_id": "3",
    "marker_id": "151",
    "is_disabled": "0",
    "open_hours": "{\"mon\":\"0\",\"tue\":\"0\",\"wed\":\"0\",\"thu\":\"0\",\"fri\":\"0\",\"sat\":\"0\",\"sun\":\"0\"}",
    "brand": "",
    "special": "",
    "custom": "[]",
    "ordr": "0",
    "slug": "studenac-dubrovnik-mohovo-17-dubrovnik",
    "lang": "",
    "pending": null,
    "created_on": "2024-11-06 03:51:26",
    "updated_on": null
  },
  {
    "id": "306",
    "title": "STUDENAC Dubrovnik, Zagrebačka ulica 44",
    "description": "",
    "street": "Zagrebačka ulica 44",
    "city": "Dubrovnik",
    "state": "",
    "postal_code": "20000",
    "country": "53",
    "lat": "42.6448692",
    "lng": "18.1050117",
    "phone": "091-627-8411",
    "fax": "",
    "email": "",
    "website": "",
    "description_2": "",
    "logo_id": "3",
    "marker_id": "151",
    "is_disabled": "0",
    "open_hours": "{\"mon\":\"0\",\"tue\":\"0\",\"wed\":\"0\",\"thu\":\"0\",\"fri\":\"0\",\"sat\":\"0\",\"sun\":\"0\"}",
    "brand": "",
    "special": "",
    "custom": "[]",
    "ordr": "0",
    "slug": "studenac-dubrovnik-zagrebacka-ulica-44-dubrovnik",
    "lang": "",
    "pending": null,
    "created_on": "2024-11-06 03:51:26",
    "updated_on": null
  },
  {
    "id": "307",
    "title": "STUDENAC Dubrovnik, Ulica Josipa Kosora 24",
    "description": "",
    "street": "Ulica Josipa Kosora 24",
    "city": "Dubrovnik",
    "state": "",
    "postal_code": "20000",
    "country": "53",
    "lat": "42.6469764",
    "lng": "18.0820977",
    "phone": "091 282 8646",
    "fax": "",
    "email": "",
    "website": "",
    "description_2": "",
    "logo_id": "3",
    "marker_id": "151",
    "is_disabled": "0",
    "open_hours": "{\"mon\":\"0\",\"tue\":\"0\",\"wed\":\"0\",\"thu\":\"0\",\"fri\":\"0\",\"sat\":\"0\",\"sun\":\"0\"}",
    "brand": "",
    "special": "",
    "custom": "[]",
    "ordr": "0",
    "slug": "studenac-dubrovnik-ulica-josipa-kosora-24-dubrovnik",
    "lang": "",
    "pending": null,
    "created_on": "2024-11-06 03:51:26",
    "updated_on": null
  },
  {
    "id": "308",
    "title": "STUDENAC Dubrovnik, Ulica Iva Vojnovića 83",
    "description": "",
    "street": "Ulica Iva Vojnovića 83",
    "city": "Dubrovnik",
    "state": "",
    "postal_code": "20000",
    "country": "53",
    "lat": "42.65266",
    "lng": "18.0792942",
    "phone": "091-282-8020",
    "fax": "",
    "email": "",
    "website": "",
    "description_2": "",
    "logo_id": "3",
    "marker_id": "151",
    "is_disabled": "0",
    "open_hours": "{\"mon\":\"0\",\"tue\":\"0\",\"wed\":\"0\",\"thu\":\"0\",\"fri\":\"0\",\"sat\":\"0\",\"sun\":\"0\"}",
    "brand": "",
    "special": "",
    "custom": "[]",
    "ordr": "0",
    "slug": "studenac-dubrovnik-ulica-iva-vojnovica-83-dubrovnik",
    "lang": "",
    "pending": null,
    "created_on": "2024-11-06 03:51:26",
    "updated_on": null
  },
  {
    "id": "309",
    "title": "STUDENAC Dubrovnik, Ul. Kr. Petra Krešimira IV 39",
    "description": "",
    "street": "Ul. Kr. Petra Krešimira IV 39",
    "city": "Dubrovnik",
    "state": "",
    "postal_code": "20000",
    "country": "53",
    "lat": "42.6425855",
    "lng": "18.1178827",
    "phone": "091 282 8647",
    "fax": "",
    "email": "",
    "website": "",
    "description_2": "",
    "logo_id": "3",
    "marker_id": "151",
    "is_disabled": "0",
    "open_hours": "{\"mon\":\"0\",\"tue\":\"0\",\"wed\":\"0\",\"thu\":\"0\",\"fri\":\"0\",\"sat\":\"0\",\"sun\":\"0\"}",
    "brand": "",
    "special": "",
    "custom": "[]",
    "ordr": "0",
    "slug": "studenac-dubrovnik-ul-kr-petra-kresimira-iv-39-dubrovnik",
    "lang": "",
    "pending": null,
    "created_on": "2024-11-06 03:51:26",
    "updated_on": null
  },
  {
    "id": "310",
    "title": "STUDENAC Dubrovnik, Ulica od Svetog Mihajla 37A",
    "description": "",
    "street": "Ulica od Svetog Mihajla 37A",
    "city": "Dubrovnik",
    "state": "",
    "postal_code": "20000",
    "country": "53",
    "lat": "42.6536436",
    "lng": "18.0788232",
    "phone": "091 282 8651",
    "fax": "",
    "email": "",
    "website": "",
    "description_2": "",
    "logo_id": "3",
    "marker_id": "151",
    "is_disabled": "0",
    "open_hours": "{\"mon\":\"0\",\"tue\":\"0\",\"wed\":\"0\",\"thu\":\"0\",\"fri\":\"0\",\"sat\":\"0\",\"sun\":\"0\"}",
    "brand": "",
    "special": "",
    "custom": "[]",
    "ordr": "0",
    "slug": "studenac-dubrovnik-ulica-od-svetog-mihajla-37a-dubrovnik",
    "lang": "",
    "pending": null,
    "created_on": "2024-11-06 03:51:26",
    "updated_on": null
  },
  {
    "id": "311",
    "title": "STUDENAC Dubrovnik, Ulica Frana Supila 35",
    "description": "",
    "street": "Ulica Frana Supila 35",
    "city": "Dubrovnik",
    "state": "",
    "postal_code": "20000",
    "country": "53",
    "lat": "42.6410804",
    "lng": "18.1200868",
    "phone": "091-282-8026",
    "fax": "",
    "email": "",
    "website": "",
    "description_2": "",
    "logo_id": "3",
    "marker_id": "151",
    "is_disabled": "0",
    "open_hours": "{\"mon\":\"0\",\"tue\":\"0\",\"wed\":\"0\",\"thu\":\"0\",\"fri\":\"0\",\"sat\":\"0\",\"sun\":\"0\"}",
    "brand": "",
    "special": "",
    "custom": "[]",
    "ordr": "0",
    "slug": "studenac-dubrovnik-ulica-frana-supila-35-dubrovnik",
    "lang": "",
    "pending": null,
    "created_on": "2024-11-06 03:51:26",
    "updated_on": null
  },
  {
    "id": "312",
    "title": "STUDENAC Dubrovnik, Vukovarska ulica 26",
    "description": "",
    "street": "Vukovarska ulica 26",
    "city": "Dubrovnik",
    "state": "",
    "postal_code": "20000",
    "country": "53",
    "lat": "42.6516961",
    "lng": "18.0917067",
    "phone": "091 282 8653",
    "fax": "",
    "email": "",
    "website": "",
    "description_2": "",
    "logo_id": "3",
    "marker_id": "151",
    "is_disabled": "0",
    "open_hours": "{\"mon\":\"0\",\"tue\":\"0\",\"wed\":\"0\",\"thu\":\"0\",\"fri\":\"0\",\"sat\":\"0\",\"sun\":\"0\"}",
    "brand": "",
    "special": "",
    "custom": "[]",
    "ordr": "0",
    "slug": "studenac-dubrovnik-vukovarska-ulica-26-dubrovnik",
    "lang": "",
    "pending": null,
    "created_on": "2024-11-06 03:51:26",
    "updated_on": null
  },
  {
    "id": "313",
    "title": "STUDENAC Dubrovnik, Masarykov put 3C",
    "description": "",
    "street": "Masarykov put 3C",
    "city": "Dubrovnik",
    "state": "",
    "postal_code": "20000",
    "country": "53",
    "lat": "42.6543099",
    "lng": "18.0726109",
    "phone": "091-611-1705",
    "fax": "",
    "email": "",
    "website": "",
    "description_2": "",
    "logo_id": "3",
    "marker_id": "151",
    "is_disabled": "0",
    "open_hours": "{\"mon\":\"0\",\"tue\":\"0\",\"wed\":\"0\",\"thu\":\"0\",\"fri\":\"0\",\"sat\":\"0\",\"sun\":\"0\"}",
    "brand": "",
    "special": "",
    "custom": "[]",
    "ordr": "0",
    "slug": "studenac-dubrovnik-masarykov-put-3c-dubrovnik",
    "lang": "",
    "pending": null,
    "created_on": "2024-11-06 03:51:26",
    "updated_on": null
  },
  {
    "id": "314",
    "title": "STUDENAC Dubrovnik, Ulica kneza Domagoja 2",
    "description": "",
    "street": "Ulica kneza Domagoja 2",
    "city": "Dubrovnik",
    "state": "",
    "postal_code": "20000",
    "country": "53",
    "lat": "42.6568428",
    "lng": "18.0779315",
    "phone": "091 282 8645",
    "fax": "",
    "email": "",
    "website": "",
    "description_2": "",
    "logo_id": "3",
    "marker_id": "151",
    "is_disabled": "0",
    "open_hours": "{\"mon\":\"0\",\"tue\":\"0\",\"wed\":\"0\",\"thu\":\"0\",\"fri\":\"0\",\"sat\":\"0\",\"sun\":\"0\"}",
    "brand": "",
    "special": "",
    "custom": "[]",
    "ordr": "0",
    "slug": "studenac-dubrovnik-ulica-kneza-domagoja-2-dubrovnik",
    "lang": "",
    "pending": null,
    "created_on": "2024-11-06 03:51:26",
    "updated_on": null
  },
  {
    "id": "315",
    "title": "STUDENAC Gradac, Obala 12",
    "description": "",
    "street": "Obala 12",
    "city": "Gradac",
    "state": "",
    "postal_code": "21330",
    "country": "53",
    "lat": "43.1045232",
    "lng": "17.3436877",
    "phone": "091-282-8438",
    "fax": "",
    "email": "",
    "website": "",
    "description_2": "",
    "logo_id": "3",
    "marker_id": "151",
    "is_disabled": "0",
    "open_hours": "{\"mon\":\"0\",\"tue\":\"0\",\"wed\":\"0\",\"thu\":\"0\",\"fri\":\"0\",\"sat\":\"0\",\"sun\":\"0\"}",
    "brand": "",
    "special": "",
    "custom": "[]",
    "ordr": "0",
    "slug": "studenac-gradac-obala-12-gradac",
    "lang": "",
    "pending": null,
    "created_on": "2024-11-06 03:51:26",
    "updated_on": null
  },
  {
    "id": "316",
    "title": "STUDENAC Grohote, Put Kućom 1A",
    "description": "",
    "street": "Put Kućom 1A",
    "city": "Grohote",
    "state": "",
    "postal_code": "21430",
    "country": "53",
    "lat": "43.3904241",
    "lng": "16.2639825",
    "phone": "091-627-8414",
    "fax": "",
    "email": "",
    "website": "",
    "description_2": "",
    "logo_id": "3",
    "marker_id": "151",
    "is_disabled": "0",
    "open_hours": "{\"mon\":\"0\",\"tue\":\"0\",\"wed\":\"0\",\"thu\":\"0\",\"fri\":\"0\",\"sat\":\"0\",\"sun\":\"0\"}",
    "brand": "",
    "special": "",
    "custom": "[]",
    "ordr": "0",
    "slug": "studenac-grohote-put-kucom-1a-grohote",
    "lang": "",
    "pending": null,
    "created_on": "2024-11-06 03:51:26",
    "updated_on": null
  },
  {
    "id": "317",
    "title": "STUDENAC Hvar, Trg Sv. Stjepana 19",
    "description": "",
    "street": "Trg Sv. Stjepana 19",
    "city": "Hvar",
    "state": "",
    "postal_code": "21450",
    "country": "53",
    "lat": "43.1724152",
    "lng": "16.4428317",
    "phone": "091-282-8471",
    "fax": "",
    "email": "",
    "website": "",
    "description_2": "",
    "logo_id": "3",
    "marker_id": "151",
    "is_disabled": "0",
    "open_hours": "{\"mon\":\"0\",\"tue\":\"0\",\"wed\":\"0\",\"thu\":\"0\",\"fri\":\"0\",\"sat\":\"0\",\"sun\":\"0\"}",
    "brand": "",
    "special": "",
    "custom": "[]",
    "ordr": "0",
    "slug": "studenac-hvar-trg-sv-stjepana-19-hvar",
    "lang": "",
    "pending": null,
    "created_on": "2024-11-06 03:51:26",
    "updated_on": null
  },
  {
    "id": "318",
    "title": "STUDENAC Hvar, Ulica Demetrija hvarskog 5",
    "description": "",
    "street": "Ulica Demetrija hvarskog 5",
    "city": "Hvar",
    "state": "",
    "postal_code": "21450",
    "country": "53",
    "lat": "43.1669528",
    "lng": "16.4466837",
    "phone": "091-282-8472",
    "fax": "",
    "email": "",
    "website": "",
    "description_2": "",
    "logo_id": "3",
    "marker_id": "151",
    "is_disabled": "0",
    "open_hours": "{\"mon\":\"0\",\"tue\":\"0\",\"wed\":\"0\",\"thu\":\"0\",\"fri\":\"0\",\"sat\":\"0\",\"sun\":\"0\"}",
    "brand": "",
    "special": "",
    "custom": "[]",
    "ordr": "0",
    "slug": "studenac-hvar-ulica-demetrija-hvarskog-5-hvar",
    "lang": "",
    "pending": null,
    "created_on": "2024-11-06 03:51:26",
    "updated_on": null
  },
  {
    "id": "319",
    "title": "STUDENAC Hvar, Hvar, Srida selo 16",
    "description": "",
    "street": "Hvar, Srida selo 16",
    "city": "Hvar",
    "state": "",
    "postal_code": "21450",
    "country": "53",
    "lat": "43.1640247",
    "lng": "16.5230542",
    "phone": "091-420-9388",
    "fax": "",
    "email": "",
    "website": "",
    "description_2": "",
    "logo_id": "3",
    "marker_id": "151",
    "is_disabled": "0",
    "open_hours": "{\"mon\":\"0\",\"tue\":\"0\",\"wed\":\"0\",\"thu\":\"0\",\"fri\":\"0\",\"sat\":\"0\",\"sun\":\"0\"}",
    "brand": "",
    "special": "",
    "custom": "[]",
    "ordr": "0",
    "slug": "studenac-hvar-hvar-srida-selo-16-hvar",
    "lang": "",
    "pending": null,
    "created_on": "2024-11-06 03:51:26",
    "updated_on": null
  },
  {
    "id": "320",
    "title": "STUDENAC Ist, Ist 120",
    "description": "",
    "street": "Ist 120",
    "city": "Ist",
    "state": "",
    "postal_code": "23293",
    "country": "53",
    "lat": "44.2686663",
    "lng": "14.7537141",
    "phone": "091-489-0094",
    "fax": "",
    "email": "",
    "website": "",
    "description_2": "",
    "logo_id": "3",
    "marker_id": "151",
    "is_disabled": "0",
    "open_hours": "{\"mon\":\"0\",\"tue\":\"0\",\"wed\":\"0\",\"thu\":\"0\",\"fri\":\"0\",\"sat\":\"0\",\"sun\":\"0\"}",
    "brand": "",
    "special": "",
    "custom": "[]",
    "ordr": "0",
    "slug": "studenac-ist-ist-120-ist",
    "lang": "",
    "pending": null,
    "created_on": "2024-11-06 03:51:26",
    "updated_on": null
  },
  {
    "id": "321",
    "title": "STUDENAC Karlobag, Uskočka 2",
    "description": "",
    "street": "Uskočka 2",
    "city": "Karlobag",
    "state": "",
    "postal_code": "53288",
    "country": "53",
    "lat": "44.5265837",
    "lng": "15.071905",
    "phone": "091-282-8520",
    "fax": "",
    "email": "",
    "website": "",
    "description_2": "",
    "logo_id": "3",
    "marker_id": "151",
    "is_disabled": "0",
    "open_hours": "{\"mon\":\"0\",\"tue\":\"0\",\"wed\":\"0\",\"thu\":\"0\",\"fri\":\"0\",\"sat\":\"0\",\"sun\":\"0\"}",
    "brand": "",
    "special": "",
    "custom": "[]",
    "ordr": "0",
    "slug": "studenac-karlobag-uskocka-2-karlobag",
    "lang": "",
    "pending": null,
    "created_on": "2024-11-06 03:51:26",
    "updated_on": null
  },
  {
    "id": "322",
    "title": "STUDENAC Kaštel štafilić, Cesta Dr. Franje Tuđmana 887",
    "description": "",
    "street": "Cesta Dr. Franje Tuđmana 887",
    "city": "Kaštel štafilić",
    "state": "",
    "postal_code": "21217",
    "country": "53",
    "lat": "43.546678",
    "lng": "16.3228568",
    "phone": "091-420-9624",
    "fax": "",
    "email": "",
    "website": "",
    "description_2": "",
    "logo_id": "3",
    "marker_id": "151",
    "is_disabled": "0",
    "open_hours": "{\"mon\":\"0\",\"tue\":\"0\",\"wed\":\"0\",\"thu\":\"0\",\"fri\":\"0\",\"sat\":\"0\",\"sun\":\"0\"}",
    "brand": "",
    "special": "",
    "custom": "[]",
    "ordr": "0",
    "slug": "studenac-kastel-stafilic-cesta-dr-franje-tudmana-887-kastel-stafilic",
    "lang": "",
    "pending": null,
    "created_on": "2024-11-06 03:51:26",
    "updated_on": null
  },
  {
    "id": "323",
    "title": "STUDENAC Komiža, Put Batude 1A",
    "description": "",
    "street": "Put Batude 1A",
    "city": "Komiža",
    "state": "",
    "postal_code": "21485",
    "country": "53",
    "lat": "43.0461008",
    "lng": "16.0917776",
    "phone": "091-282-8560",
    "fax": "",
    "email": "",
    "website": "",
    "description_2": "",
    "logo_id": "3",
    "marker_id": "151",
    "is_disabled": "0",
    "open_hours": "{\"mon\":\"0\",\"tue\":\"0\",\"wed\":\"0\",\"thu\":\"0\",\"fri\":\"0\",\"sat\":\"0\",\"sun\":\"0\"}",
    "brand": "",
    "special": "",
    "custom": "[]",
    "ordr": "0",
    "slug": "studenac-komiza-put-batude-1a-komiza",
    "lang": "",
    "pending": null,
    "created_on": "2024-11-06 03:51:26",
    "updated_on": null
  },
  {
    "id": "324",
    "title": "STUDENAC Korčula, Frane Kršinića1",
    "description": "",
    "street": "Frane Kršinića1",
    "city": "Korčula",
    "state": "",
    "postal_code": "20260",
    "country": "53",
    "lat": "42.9542816",
    "lng": "17.1307289",
    "phone": "091-282-0062",
    "fax": "",
    "email": "",
    "website": "",
    "description_2": "",
    "logo_id": "3",
    "marker_id": "151",
    "is_disabled": "0",
    "open_hours": "{\"mon\":\"0\",\"tue\":\"0\",\"wed\":\"0\",\"thu\":\"0\",\"fri\":\"0\",\"sat\":\"0\",\"sun\":\"0\"}",
    "brand": "",
    "special": "",
    "custom": "[]",
    "ordr": "0",
    "slug": "studenac-korcula-frane-krsinica1-korcula",
    "lang": "",
    "pending": null,
    "created_on": "2024-11-06 03:51:26",
    "updated_on": null
  },
  {
    "id": "325",
    "title": "STUDENAC Lumbarda, Lumbarda 543",
    "description": "",
    "street": "Lumbarda 543",
    "city": "Lumbarda",
    "state": "",
    "postal_code": "20263",
    "country": "53",
    "lat": "42.9222739",
    "lng": "17.174138",
    "phone": "091-282-8475",
    "fax": "",
    "email": "",
    "website": "",
    "description_2": "",
    "logo_id": "3",
    "marker_id": "151",
    "is_disabled": "0",
    "open_hours": "{\"mon\":\"0\",\"tue\":\"0\",\"wed\":\"0\",\"thu\":\"0\",\"fri\":\"0\",\"sat\":\"0\",\"sun\":\"0\"}",
    "brand": "",
    "special": "",
    "custom": "[]",
    "ordr": "0",
    "slug": "studenac-lumbarda-lumbarda-543-lumbarda",
    "lang": "",
    "pending": null,
    "created_on": "2024-11-06 03:51:26",
    "updated_on": null
  },
  {
    "id": "326",
    "title": "STUDENAC Makarska, Ulica Ante Starčevića 38",
    "description": "",
    "street": "Ulica Ante Starčevića 38",
    "city": "Makarska",
    "state": "",
    "postal_code": "21300",
    "country": "53",
    "lat": "43.2988482",
    "lng": "17.0168774",
    "phone": "091-489-0678",
    "fax": "",
    "email": "",
    "website": "",
    "description_2": "",
    "logo_id": "3",
    "marker_id": "151",
    "is_disabled": "0",
    "open_hours": "{\"mon\":\"0\",\"tue\":\"0\",\"wed\":\"0\",\"thu\":\"0\",\"fri\":\"0\",\"sat\":\"0\",\"sun\":\"0\"}",
    "brand": "",
    "special": "",
    "custom": "[]",
    "ordr": "0",
    "slug": "studenac-makarska-ulica-ante-starcevica-38-makarska",
    "lang": "",
    "pending": null,
    "created_on": "2024-11-06 03:51:26",
    "updated_on": null
  },
  {
    "id": "327",
    "title": "STUDENAC Milna, Riva 18",
    "description": "",
    "street": "Riva 18",
    "city": "Milna",
    "state": "",
    "postal_code": "21405",
    "country": "53",
    "lat": "43.3277856",
    "lng": "16.447881",
    "phone": "091-611-1741",
    "fax": "",
    "email": "",
    "website": "",
    "description_2": "",
    "logo_id": "3",
    "marker_id": "151",
    "is_disabled": "0",
    "open_hours": "{\"mon\":\"0\",\"tue\":\"0\",\"wed\":\"0\",\"thu\":\"0\",\"fri\":\"0\",\"sat\":\"0\",\"sun\":\"0\"}",
    "brand": "",
    "special": "",
    "custom": "[]",
    "ordr": "0",
    "slug": "studenac-milna-riva-18-milna",
    "lang": "",
    "pending": null,
    "created_on": "2024-11-06 03:51:26",
    "updated_on": null
  },
  {
    "id": "328",
    "title": "STUDENAC Mlini, Medine 1",
    "description": "",
    "street": "Medine 1",
    "city": "Mlini",
    "state": "",
    "postal_code": "20207",
    "country": "53",
    "lat": "42.6253034",
    "lng": "18.2016787",
    "phone": "091-282-8692",
    "fax": "",
    "email": "",
    "website": "",
    "description_2": "",
    "logo_id": "3",
    "marker_id": "151",
    "is_disabled": "0",
    "open_hours": "{\"mon\":\"0\",\"tue\":\"0\",\"wed\":\"0\",\"thu\":\"0\",\"fri\":\"0\",\"sat\":\"0\",\"sun\":\"0\"}",
    "brand": "",
    "special": "",
    "custom": "[]",
    "ordr": "0",
    "slug": "studenac-mlini-medine-1-mlini",
    "lang": "",
    "pending": null,
    "created_on": "2024-11-06 03:51:26",
    "updated_on": null
  },
  {
    "id": "329",
    "title": "STUDENAC Molat, Molat 77",
    "description": "",
    "street": "Molat 77",
    "city": "Molat",
    "state": "",
    "postal_code": "23292",
    "country": "53",
    "lat": "44.214094",
    "lng": "14.8787",
    "phone": "091-489-0104",
    "fax": "",
    "email": "",
    "website": "",
    "description_2": "",
    "logo_id": "3",
    "marker_id": "151",
    "is_disabled": "0",
    "open_hours": "{\"mon\":\"0\",\"tue\":\"0\",\"wed\":\"0\",\"thu\":\"0\",\"fri\":\"0\",\"sat\":\"0\",\"sun\":\"0\"}",
    "brand": "",
    "special": "",
    "custom": "[]",
    "ordr": "0",
    "slug": "studenac-molat-molat-77-molat",
    "lang": "",
    "pending": null,
    "created_on": "2024-11-06 03:51:26",
    "updated_on": null
  },
  {
    "id": "330",
    "title": "STUDENAC Nin, Dražnikova 76t",
    "description": "",
    "street": "Dražnikova 76t",
    "city": "Nin",
    "state": "",
    "postal_code": "23232",
    "country": "53",
    "lat": "44.2279925",
    "lng": "15.1697453",
    "phone": "091-282-8589",
    "fax": "",
    "email": "",
    "website": "",
    "description_2": "",
    "logo_id": "3",
    "marker_id": "151",
    "is_disabled": "0",
    "open_hours": "{\"mon\":\"0\",\"tue\":\"0\",\"wed\":\"0\",\"thu\":\"0\",\"fri\":\"0\",\"sat\":\"0\",\"sun\":\"0\"}",
    "brand": "",
    "special": "",
    "custom": "[]",
    "ordr": "0",
    "slug": "studenac-nin-draznikova-76t-nin",
    "lang": "",
    "pending": null,
    "created_on": "2024-11-06 03:51:26",
    "updated_on": null
  },
  {
    "id": "331",
    "title": "STUDENAC Novalja, Ulica Braće Radića 34",
    "description": "",
    "street": "Ulica Braće Radića 34",
    "city": "Novalja",
    "state": "",
    "postal_code": "53291",
    "country": "53",
    "lat": "44.5580604",
    "lng": "14.8819944",
    "phone": "091-282-8103",
    "fax": "",
    "email": "",
    "website": "",
    "description_2": "",
    "logo_id": "3",
    "marker_id": "151",
    "is_disabled": "0",
    "open_hours": "{\"mon\":\"0\",\"tue\":\"0\",\"wed\":\"0\",\"thu\":\"0\",\"fri\":\"0\",\"sat\":\"0\",\"sun\":\"0\"}",
    "brand": "",
    "special": "",
    "custom": "[]",
    "ordr": "0",
    "slug": "studenac-novalja-ulica-brace-radica-34-novalja",
    "lang": "",
    "pending": null,
    "created_on": "2024-11-06 03:51:26",
    "updated_on": null
  },
  {
    "id": "332",
    "title": "STUDENAC Novi vinodolski, Pod Sveti Mikulj 19",
    "description": "",
    "street": "Pod Sveti Mikulj 19",
    "city": "Novi vinodolski",
    "state": "",
    "postal_code": "51250",
    "country": "53",
    "lat": "45.1301111",
    "lng": "14.774533",
    "phone": "091-489-0184",
    "fax": "",
    "email": "",
    "website": "",
    "description_2": "",
    "logo_id": "3",
    "marker_id": "151",
    "is_disabled": "0",
    "open_hours": "{\"mon\":\"0\",\"tue\":\"0\",\"wed\":\"0\",\"thu\":\"0\",\"fri\":\"0\",\"sat\":\"0\",\"sun\":\"0\"}",
    "brand": "",
    "special": "",
    "custom": "[]",
    "ordr": "0",
    "slug": "studenac-novi-vinodolski-pod-sveti-mikulj-19-novi-vinodolski",
    "lang": "",
    "pending": null,
    "created_on": "2024-11-06 03:51:26",
    "updated_on": null
  },
  {
    "id": "333",
    "title": "STUDENAC Novi vinodolski, Jurkovo 3",
    "description": "",
    "street": "Jurkovo 3",
    "city": "Novi vinodolski",
    "state": "",
    "postal_code": "51250",
    "country": "53",
    "lat": "45.126169",
    "lng": "14.7911878",
    "phone": "091-282-8094",
    "fax": "",
    "email": "",
    "website": "",
    "description_2": "",
    "logo_id": "3",
    "marker_id": "151",
    "is_disabled": "0",
    "open_hours": "{\"mon\":\"0\",\"tue\":\"0\",\"wed\":\"0\",\"thu\":\"0\",\"fri\":\"0\",\"sat\":\"0\",\"sun\":\"0\"}",
    "brand": "",
    "special": "",
    "custom": "[]",
    "ordr": "0",
    "slug": "studenac-novi-vinodolski-jurkovo-3-novi-vinodolski",
    "lang": "",
    "pending": null,
    "created_on": "2024-11-06 03:51:26",
    "updated_on": null
  },
  {
    "id": "334",
    "title": "STUDENAC Omiš, Put Ribnjaka 1A",
    "description": "",
    "street": "Put Ribnjaka 1A",
    "city": "Omiš",
    "state": "",
    "postal_code": "21310",
    "country": "53",
    "lat": "43.4445646",
    "lng": "16.6866132",
    "phone": "091-282-8557",
    "fax": "",
    "email": "",
    "website": "",
    "description_2": "",
    "logo_id": "3",
    "marker_id": "151",
    "is_disabled": "0",
    "open_hours": "{\"mon\":\"0\",\"tue\":\"0\",\"wed\":\"0\",\"thu\":\"0\",\"fri\":\"0\",\"sat\":\"0\",\"sun\":\"0\"}",
    "brand": "",
    "special": "",
    "custom": "[]",
    "ordr": "0",
    "slug": "studenac-omis-put-ribnjaka-1a-omis",
    "lang": "",
    "pending": null,
    "created_on": "2024-11-06 03:51:26",
    "updated_on": null
  },
  {
    "id": "335",
    "title": "STUDENAC Omiš, Četvrt Ribnjak 17",
    "description": "",
    "street": "Četvrt Ribnjak 17",
    "city": "Omiš",
    "state": "",
    "postal_code": "21310",
    "country": "53",
    "lat": "43.4423356",
    "lng": "16.6824782",
    "phone": "091-320-9006",
    "fax": "",
    "email": "",
    "website": "",
    "description_2": "",
    "logo_id": "3",
    "marker_id": "151",
    "is_disabled": "0",
    "open_hours": "{\"mon\":\"0\",\"tue\":\"0\",\"wed\":\"0\",\"thu\":\"0\",\"fri\":\"0\",\"sat\":\"0\",\"sun\":\"0\"}",
    "brand": "",
    "special": "",
    "custom": "[]",
    "ordr": "0",
    "slug": "studenac-omis-cetvrt-ribnjak-17-omis",
    "lang": "",
    "pending": null,
    "created_on": "2024-11-06 03:51:26",
    "updated_on": null
  },
  {
    "id": "336",
    "title": "STUDENAC Omiš, Ivana Gundulića 2",
    "description": "",
    "street": "Ivana Gundulića 2",
    "city": "Omiš",
    "state": "",
    "postal_code": "21310",
    "country": "53",
    "lat": "43.4435562",
    "lng": "16.6930961",
    "phone": "091-282-8451",
    "fax": "",
    "email": "",
    "website": "",
    "description_2": "",
    "logo_id": "3",
    "marker_id": "151",
    "is_disabled": "0",
    "open_hours": "{\"mon\":\"0\",\"tue\":\"0\",\"wed\":\"0\",\"thu\":\"0\",\"fri\":\"0\",\"sat\":\"0\",\"sun\":\"0\"}",
    "brand": "",
    "special": "",
    "custom": "[]",
    "ordr": "0",
    "slug": "studenac-omis-ivana-gundulica-2-omis",
    "lang": "",
    "pending": null,
    "created_on": "2024-11-06 03:51:26",
    "updated_on": null
  },
  {
    "id": "337",
    "title": "STUDENAC Orebić, Ul. Bana Josipa Jelačića 22 B",
    "description": "",
    "street": "Ul. Bana Josipa Jelačića 22 B",
    "city": "Orebić",
    "state": "",
    "postal_code": "20250",
    "country": "53",
    "lat": "42.9772049",
    "lng": "17.1875962",
    "phone": "091-282-8473",
    "fax": "",
    "email": "",
    "website": "",
    "description_2": "",
    "logo_id": "3",
    "marker_id": "151",
    "is_disabled": "0",
    "open_hours": "{\"mon\":\"0\",\"tue\":\"0\",\"wed\":\"0\",\"thu\":\"0\",\"fri\":\"0\",\"sat\":\"0\",\"sun\":\"0\"}",
    "brand": "",
    "special": "",
    "custom": "[]",
    "ordr": "0",
    "slug": "studenac-orebic-ul-bana-josipa-jelacica-22-b-orebic",
    "lang": "",
    "pending": null,
    "created_on": "2024-11-06 03:51:26",
    "updated_on": null
  },
  {
    "id": "338",
    "title": "STUDENAC Pazin, Šet. Pazinske Gimnazije 12",
    "description": "",
    "street": "Šet. Pazinske Gimnazije 12",
    "city": "Pazin",
    "state": "",
    "postal_code": "52000",
    "country": "53",
    "lat": "45.2404592",
    "lng": "13.9419763",
    "phone": "091-282-8178",
    "fax": "",
    "email": "",
    "website": "",
    "description_2": "",
    "logo_id": "3",
    "marker_id": "151",
    "is_disabled": "0",
    "open_hours": "{\"mon\":\"0\",\"tue\":\"0\",\"wed\":\"0\",\"thu\":\"0\",\"fri\":\"0\",\"sat\":\"0\",\"sun\":\"0\"}",
    "brand": "",
    "special": "",
    "custom": "[]",
    "ordr": "0",
    "slug": "studenac-pazin-set-pazinske-gimnazije-12-pazin",
    "lang": "",
    "pending": null,
    "created_on": "2024-11-06 03:51:26",
    "updated_on": null
  },
  {
    "id": "339",
    "title": "STUDENAC Pazin, Prolaz Jože Šurana 5",
    "description": "",
    "street": "Prolaz Jože Šurana 5",
    "city": "Pazin",
    "state": "",
    "postal_code": "52000",
    "country": "53",
    "lat": "45.2396891",
    "lng": "13.9363823",
    "phone": "091-282-8125",
    "fax": "",
    "email": "",
    "website": "",
    "description_2": "",
    "logo_id": "3",
    "marker_id": "151",
    "is_disabled": "0",
    "open_hours": "{\"mon\":\"0\",\"tue\":\"0\",\"wed\":\"0\",\"thu\":\"0\",\"fri\":\"0\",\"sat\":\"0\",\"sun\":\"0\"}",
    "brand": "",
    "special": "",
    "custom": "[]",
    "ordr": "0",
    "slug": "studenac-pazin-prolaz-joze-surana-5-pazin",
    "lang": "",
    "pending": null,
    "created_on": "2024-11-06 03:51:26",
    "updated_on": null
  },
  {
    "id": "340",
    "title": "STUDENAC Pirovac, Kralja Krešimira IV",
    "description": "",
    "street": "Kralja Krešimira IV",
    "city": "Pirovac",
    "state": "",
    "postal_code": "22213",
    "country": "53",
    "lat": "43.8196103",
    "lng": "15.6646622",
    "phone": "091-606-1530",
    "fax": "",
    "email": "",
    "website": "",
    "description_2": "",
    "logo_id": "3",
    "marker_id": "151",
    "is_disabled": "0",
    "open_hours": "{\"mon\":\"0\",\"tue\":\"0\",\"wed\":\"0\",\"thu\":\"0\",\"fri\":\"0\",\"sat\":\"0\",\"sun\":\"0\"}",
    "brand": "",
    "special": "",
    "custom": "[]",
    "ordr": "0",
    "slug": "studenac-pirovac-kralja-kresimira-iv-pirovac",
    "lang": "",
    "pending": null,
    "created_on": "2024-11-06 03:51:26",
    "updated_on": null
  },
  {
    "id": "341",
    "title": "STUDENAC Podgora, Branimirova obala 59",
    "description": "",
    "street": "Branimirova obala 59",
    "city": "Podgora",
    "state": "",
    "postal_code": "21327",
    "country": "53",
    "lat": "43.2415228",
    "lng": "17.0761633",
    "phone": "091-282-8430",
    "fax": "",
    "email": "",
    "website": "",
    "description_2": "",
    "logo_id": "3",
    "marker_id": "151",
    "is_disabled": "0",
    "open_hours": "{\"mon\":\"0\",\"tue\":\"0\",\"wed\":\"0\",\"thu\":\"0\",\"fri\":\"0\",\"sat\":\"0\",\"sun\":\"0\"}",
    "brand": "",
    "special": "",
    "custom": "[]",
    "ordr": "0",
    "slug": "studenac-podgora-branimirova-obala-59-podgora",
    "lang": "",
    "pending": null,
    "created_on": "2024-11-06 03:51:26",
    "updated_on": null
  },
  {
    "id": "342",
    "title": "STUDENAC Popovec, Varaždinska cesta 90",
    "description": "",
    "street": "Varaždinska cesta 90",
    "city": "Popovec",
    "state": "",
    "postal_code": "10360",
    "country": "53",
    "lat": "45.8503524",
    "lng": "16.1407073",
    "phone": "091 282 8863",
    "fax": "",
    "email": "",
    "website": "",
    "description_2": "",
    "logo_id": "3",
    "marker_id": "151",
    "is_disabled": "0",
    "open_hours": "{\"mon\":\"0\",\"tue\":\"0\",\"wed\":\"0\",\"thu\":\"0\",\"fri\":\"0\",\"sat\":\"0\",\"sun\":\"0\"}",
    "brand": "",
    "special": "",
    "custom": "[]",
    "ordr": "0",
    "slug": "studenac-popovec-varazdinska-cesta-90-popovec",
    "lang": "",
    "pending": null,
    "created_on": "2024-11-06 03:51:26",
    "updated_on": null
  },
  {
    "id": "343",
    "title": "STUDENAC Poreč - parenzo, Špadići 40",
    "description": "",
    "street": "Špadići 40",
    "city": "Poreč - parenzo",
    "state": "",
    "postal_code": "52440",
    "country": "53",
    "lat": "45.2414759",
    "lng": "13.6014369",
    "phone": "091-282-8556",
    "fax": "",
    "email": "",
    "website": "",
    "description_2": "",
    "logo_id": "3",
    "marker_id": "151",
    "is_disabled": "0",
    "open_hours": "{\"mon\":\"0\",\"tue\":\"0\",\"wed\":\"0\",\"thu\":\"0\",\"fri\":\"0\",\"sat\":\"0\",\"sun\":\"0\"}",
    "brand": "",
    "special": "",
    "custom": "[]",
    "ordr": "0",
    "slug": "studenac-porec-parenzo-spadici-40-porec-parenzo",
    "lang": "",
    "pending": null,
    "created_on": "2024-11-06 03:51:26",
    "updated_on": null
  },
  {
    "id": "344",
    "title": "STUDENAC Postira, Porat 4",
    "description": "",
    "street": "Porat 4",
    "city": "Postira",
    "state": "",
    "postal_code": "21410",
    "country": "53",
    "lat": "43.3756706",
    "lng": "16.627887",
    "phone": "091-611-1742",
    "fax": "",
    "email": "",
    "website": "",
    "description_2": "",
    "logo_id": "3",
    "marker_id": "151",
    "is_disabled": "0",
    "open_hours": "{\"mon\":\"0\",\"tue\":\"0\",\"wed\":\"0\",\"thu\":\"0\",\"fri\":\"0\",\"sat\":\"0\",\"sun\":\"0\"}",
    "brand": "",
    "special": "",
    "custom": "[]",
    "ordr": "0",
    "slug": "studenac-postira-porat-4-postira",
    "lang": "",
    "pending": null,
    "created_on": "2024-11-06 03:51:26",
    "updated_on": null
  },
  {
    "id": "345",
    "title": "STUDENAC Rijeka, Trpimirova 6",
    "description": "",
    "street": "Trpimirova 6",
    "city": "Rijeka",
    "state": "",
    "postal_code": "51000",
    "country": "53",
    "lat": "45.3281256",
    "lng": "14.4376311",
    "phone": "091-282-8164",
    "fax": "",
    "email": "",
    "website": "",
    "description_2": "",
    "logo_id": "3",
    "marker_id": "151",
    "is_disabled": "0",
    "open_hours": "{\"mon\":\"0\",\"tue\":\"0\",\"wed\":\"0\",\"thu\":\"0\",\"fri\":\"0\",\"sat\":\"0\",\"sun\":\"0\"}",
    "brand": "",
    "special": "",
    "custom": "[]",
    "ordr": "0",
    "slug": "studenac-rijeka-trpimirova-6-rijeka",
    "lang": "",
    "pending": null,
    "created_on": "2024-11-06 03:51:26",
    "updated_on": null
  },
  {
    "id": "346",
    "title": "STUDENAC Rijeka, Prolaz Marije K. Kozulić 1-4",
    "description": "",
    "street": "Prolaz Marije K. Kozulić 1-4",
    "city": "Rijeka",
    "state": "",
    "postal_code": "51000",
    "country": "53",
    "lat": "45.3294164",
    "lng": "14.4386914",
    "phone": "091-282-8148",
    "fax": "",
    "email": "",
    "website": "",
    "description_2": "",
    "logo_id": "3",
    "marker_id": "151",
    "is_disabled": "0",
    "open_hours": "{\"mon\":\"0\",\"tue\":\"0\",\"wed\":\"0\",\"thu\":\"0\",\"fri\":\"0\",\"sat\":\"0\",\"sun\":\"0\"}",
    "brand": "",
    "special": "",
    "custom": "[]",
    "ordr": "0",
    "slug": "studenac-rijeka-prolaz-marije-k-kozulic-1-4-rijeka",
    "lang": "",
    "pending": null,
    "created_on": "2024-11-06 03:51:26",
    "updated_on": null
  },
  {
    "id": "347",
    "title": "STUDENAC Rijeka, Stupari 23b - Marinići",
    "description": "",
    "street": "Stupari 23b - Marinići",
    "city": "Rijeka",
    "state": "",
    "postal_code": "51000",
    "country": "53",
    "lat": "45.3652337",
    "lng": "14.3968968",
    "phone": "091-282-8690",
    "fax": "",
    "email": "",
    "website": "",
    "description_2": "",
    "logo_id": "3",
    "marker_id": "151",
    "is_disabled": "0",
    "open_hours": "{\"mon\":\"0\",\"tue\":\"0\",\"wed\":\"0\",\"thu\":\"0\",\"fri\":\"0\",\"sat\":\"0\",\"sun\":\"0\"}",
    "brand": "",
    "special": "",
    "custom": "[]",
    "ordr": "0",
    "slug": "studenac-rijeka-stupari-23b-marinici-rijeka",
    "lang": "",
    "pending": null,
    "created_on": "2024-11-06 03:51:26",
    "updated_on": null
  },
  {
    "id": "348",
    "title": "STUDENAC Rijeka, Krešimirova ulica 30",
    "description": "",
    "street": "Krešimirova ulica 30",
    "city": "Rijeka",
    "state": "",
    "postal_code": "51000",
    "country": "53",
    "lat": "45.3306559",
    "lng": "14.4308332",
    "phone": "091-282-9090",
    "fax": "",
    "email": "",
    "website": "",
    "description_2": "",
    "logo_id": "3",
    "marker_id": "151",
    "is_disabled": "0",
    "open_hours": "{\"mon\":\"0\",\"tue\":\"0\",\"wed\":\"0\",\"thu\":\"0\",\"fri\":\"0\",\"sat\":\"0\",\"sun\":\"0\"}",
    "brand": "",
    "special": "",
    "custom": "[]",
    "ordr": "0",
    "slug": "studenac-rijeka-kresimirova-ulica-30-rijeka",
    "lang": "",
    "pending": null,
    "created_on": "2024-11-06 03:51:26",
    "updated_on": null
  },
  {
    "id": "349",
    "title": "STUDENAC Rijeka, Krešimirova ulica 22A",
    "description": "",
    "street": "Krešimirova ulica 22A",
    "city": "Rijeka",
    "state": "",
    "postal_code": "51000",
    "country": "53",
    "lat": "45.3301748",
    "lng": "14.433288",
    "phone": "091-282-8157",
    "fax": "",
    "email": "",
    "website": "",
    "description_2": "",
    "logo_id": "3",
    "marker_id": "151",
    "is_disabled": "0",
    "open_hours": "{\"mon\":\"0\",\"tue\":\"0\",\"wed\":\"0\",\"thu\":\"0\",\"fri\":\"0\",\"sat\":\"0\",\"sun\":\"0\"}",
    "brand": "",
    "special": "",
    "custom": "[]",
    "ordr": "0",
    "slug": "studenac-rijeka-kresimirova-ulica-22a-rijeka",
    "lang": "",
    "pending": null,
    "created_on": "2024-11-06 03:51:26",
    "updated_on": null
  },
  {
    "id": "350",
    "title": "STUDENAC Rogoznica, Obala kneza Domagoja 82",
    "description": "",
    "street": "Obala kneza Domagoja 82",
    "city": "Rogoznica",
    "state": "",
    "postal_code": "22203",
    "country": "53",
    "lat": "43.5271672",
    "lng": "15.9689784",
    "phone": "091-606-1644",
    "fax": "",
    "email": "",
    "website": "",
    "description_2": "",
    "logo_id": "3",
    "marker_id": "151",
    "is_disabled": "0",
    "open_hours": "{\"mon\":\"0\",\"tue\":\"0\",\"wed\":\"0\",\"thu\":\"0\",\"fri\":\"0\",\"sat\":\"0\",\"sun\":\"0\"}",
    "brand": "",
    "special": "",
    "custom": "[]",
    "ordr": "0",
    "slug": "studenac-rogoznica-obala-kneza-domagoja-82-rogoznica",
    "lang": "",
    "pending": null,
    "created_on": "2024-11-06 03:51:26",
    "updated_on": null
  },
  {
    "id": "351",
    "title": "STUDENAC Rogoznica, Jadranska 7A",
    "description": "",
    "street": "Jadranska 7A",
    "city": "Rogoznica",
    "state": "",
    "postal_code": "22203",
    "country": "53",
    "lat": "43.5321594",
    "lng": "15.9679134",
    "phone": "091-606-1637",
    "fax": "",
    "email": "",
    "website": "",
    "description_2": "",
    "logo_id": "3",
    "marker_id": "151",
    "is_disabled": "0",
    "open_hours": "{\"mon\":\"0\",\"tue\":\"0\",\"wed\":\"0\",\"thu\":\"0\",\"fri\":\"0\",\"sat\":\"0\",\"sun\":\"0\"}",
    "brand": "",
    "special": "",
    "custom": "[]",
    "ordr": "0",
    "slug": "studenac-rogoznica-jadranska-7a-rogoznica",
    "lang": "",
    "pending": null,
    "created_on": "2024-11-06 03:51:26",
    "updated_on": null
  },
  {
    "id": "352",
    "title": "STUDENAC Rogoznica",
    "description": "",
    "street": "Ulica Ante Starčevića 18",
    "city": "Rogoznica",
    "state": "",
    "postal_code": "22203",
    "country": "53",
    "lat": "43.535286",
    "lng": "15.966747",
    "phone": "091-606-1644",
    "fax": "",
    "email": "",
    "website": "",
    "description_2": "",
    "logo_id": "3",
    "marker_id": "151",
    "is_disabled": "0",
    "open_hours": "{\"mon\":\"0\",\"tue\":\"0\",\"wed\":\"0\",\"thu\":\"0\",\"fri\":\"0\",\"sat\":\"0\",\"sun\":\"0\"}",
    "brand": "",
    "special": "",
    "custom": "[]",
    "ordr": "0",
    "slug": "studenac-rogoznica-nan-rogoznica",
    "lang": "",
    "pending": null,
    "created_on": "2024-11-06 03:51:26",
    "updated_on": null
  },
  {
    "id": "353",
    "title": "STUDENAC Rovanjska, Ulica put Rovanjske 4",
    "description": "",
    "street": "Ulica put Rovanjske 4",
    "city": "Rovanjska",
    "state": "",
    "postal_code": "23244",
    "country": "53",
    "lat": "44.2527975",
    "lng": "15.5391423",
    "phone": "091-489-0628",
    "fax": "",
    "email": "",
    "website": "",
    "description_2": "",
    "logo_id": "3",
    "marker_id": "151",
    "is_disabled": "0",
    "open_hours": "{\"mon\":\"0\",\"tue\":\"0\",\"wed\":\"0\",\"thu\":\"0\",\"fri\":\"0\",\"sat\":\"0\",\"sun\":\"0\"}",
    "brand": "",
    "special": "",
    "custom": "[]",
    "ordr": "0",
    "slug": "studenac-rovanjska-ulica-put-rovanjske-4-rovanjska",
    "lang": "",
    "pending": null,
    "created_on": "2024-11-06 03:51:26",
    "updated_on": null
  },
  {
    "id": "354",
    "title": "STUDENAC Rtina, Rtina I 247",
    "description": "",
    "street": "Rtina I 247",
    "city": "Rtina",
    "state": "",
    "postal_code": "23248",
    "country": "53",
    "lat": "44.3088474",
    "lng": "15.2790494",
    "phone": "091-489-0681",
    "fax": "",
    "email": "",
    "website": "",
    "description_2": "",
    "logo_id": "3",
    "marker_id": "151",
    "is_disabled": "0",
    "open_hours": "{\"mon\":\"0\",\"tue\":\"0\",\"wed\":\"0\",\"thu\":\"0\",\"fri\":\"0\",\"sat\":\"0\",\"sun\":\"0\"}",
    "brand": "",
    "special": "",
    "custom": "[]",
    "ordr": "0",
    "slug": "studenac-rtina-rtina-i-247-rtina",
    "lang": "",
    "pending": null,
    "created_on": "2024-11-06 03:51:26",
    "updated_on": null
  },
  {
    "id": "355",
    "title": "STUDENAC Seget donji, Ulica hrvatskih žrtava 47",
    "description": "",
    "street": "Ulica hrvatskih žrtava 47",
    "city": "Seget donji",
    "state": "",
    "postal_code": "21218",
    "country": "53",
    "lat": "43.5186198",
    "lng": "16.2332407",
    "phone": "091-606-1379",
    "fax": "",
    "email": "",
    "website": "",
    "description_2": "",
    "logo_id": "3",
    "marker_id": "151",
    "is_disabled": "0",
    "open_hours": "{\"mon\":\"0\",\"tue\":\"0\",\"wed\":\"0\",\"thu\":\"0\",\"fri\":\"0\",\"sat\":\"0\",\"sun\":\"0\"}",
    "brand": "",
    "special": "",
    "custom": "[]",
    "ordr": "0",
    "slug": "studenac-seget-donji-ulica-hrvatskih-zrtava-47-seget-donji",
    "lang": "",
    "pending": null,
    "created_on": "2024-11-06 03:51:26",
    "updated_on": null
  },
  {
    "id": "356",
    "title": "STUDENAC Senj, Obala Franje Tuđmana 9",
    "description": "",
    "street": "Obala Franje Tuđmana 9",
    "city": "Senj",
    "state": "",
    "postal_code": "53270",
    "country": "53",
    "lat": "44.9896655",
    "lng": "14.902449",
    "phone": "091-282-8138",
    "fax": "",
    "email": "",
    "website": "",
    "description_2": "",
    "logo_id": "3",
    "marker_id": "151",
    "is_disabled": "0",
    "open_hours": "{\"mon\":\"0\",\"tue\":\"0\",\"wed\":\"0\",\"thu\":\"0\",\"fri\":\"0\",\"sat\":\"0\",\"sun\":\"0\"}",
    "brand": "",
    "special": "",
    "custom": "[]",
    "ordr": "0",
    "slug": "studenac-senj-obala-franje-tudmana-9-senj",
    "lang": "",
    "pending": null,
    "created_on": "2024-11-06 03:51:26",
    "updated_on": null
  },
  {
    "id": "357",
    "title": "STUDENAC Sesvete, Zagrebačka cesta 9",
    "description": "",
    "street": "Zagrebačka cesta 9",
    "city": "Sesvete",
    "state": "",
    "postal_code": "10360",
    "country": "53",
    "lat": "45.8274143",
    "lng": "16.1079726",
    "phone": "091-489-0049",
    "fax": "",
    "email": "",
    "website": "",
    "description_2": "",
    "logo_id": "3",
    "marker_id": "151",
    "is_disabled": "0",
    "open_hours": "{\"mon\":\"0\",\"tue\":\"0\",\"wed\":\"0\",\"thu\":\"0\",\"fri\":\"0\",\"sat\":\"0\",\"sun\":\"0\"}",
    "brand": "",
    "special": "",
    "custom": "[]",
    "ordr": "0",
    "slug": "studenac-sesvete-zagrebacka-cesta-9-sesvete",
    "lang": "",
    "pending": null,
    "created_on": "2024-11-06 03:51:26",
    "updated_on": null
  },
  {
    "id": "358",
    "title": "STUDENAC Sesvete, Ulica kaktusa 5",
    "description": "",
    "street": "Ulica kaktusa 5",
    "city": "Sesvete",
    "state": "",
    "postal_code": "10360",
    "country": "53",
    "lat": "45.8273528",
    "lng": "16.0851947",
    "phone": "091 282 8862",
    "fax": "",
    "email": "",
    "website": "",
    "description_2": "",
    "logo_id": "3",
    "marker_id": "151",
    "is_disabled": "0",
    "open_hours": "{\"mon\":\"0\",\"tue\":\"0\",\"wed\":\"0\",\"thu\":\"0\",\"fri\":\"0\",\"sat\":\"0\",\"sun\":\"0\"}",
    "brand": "",
    "special": "",
    "custom": "[]",
    "ordr": "0",
    "slug": "studenac-sesvete-ulica-kaktusa-5-sesvete",
    "lang": "",
    "pending": null,
    "created_on": "2024-11-06 03:51:26",
    "updated_on": null
  },
  {
    "id": "359",
    "title": "STUDENAC Sesvete, Zagrebačka cesta 4C",
    "description": "",
    "street": "Zagrebačka cesta 4C",
    "city": "Sesvete",
    "state": "",
    "postal_code": "10360",
    "country": "53",
    "lat": "45.8271568",
    "lng": "16.0859418",
    "phone": "091 282 8860",
    "fax": "",
    "email": "",
    "website": "",
    "description_2": "",
    "logo_id": "3",
    "marker_id": "151",
    "is_disabled": "0",
    "open_hours": "{\"mon\":\"0\",\"tue\":\"0\",\"wed\":\"0\",\"thu\":\"0\",\"fri\":\"0\",\"sat\":\"0\",\"sun\":\"0\"}",
    "brand": "",
    "special": "",
    "custom": "[]",
    "ordr": "0",
    "slug": "studenac-sesvete-zagrebacka-cesta-4c-sesvete",
    "lang": "",
    "pending": null,
    "created_on": "2024-11-06 03:51:26",
    "updated_on": null
  },
  {
    "id": "360",
    "title": "STUDENAC Sesvete, Bjelovarska ulica 2",
    "description": "",
    "street": "Bjelovarska ulica 2",
    "city": "Sesvete",
    "state": "",
    "postal_code": "10360",
    "country": "53",
    "lat": "45.8268297",
    "lng": "16.1112508",
    "phone": "091 282 8855",
    "fax": "",
    "email": "",
    "website": "",
    "description_2": "",
    "logo_id": "3",
    "marker_id": "151",
    "is_disabled": "0",
    "open_hours": "{\"mon\":\"0\",\"tue\":\"0\",\"wed\":\"0\",\"thu\":\"0\",\"fri\":\"0\",\"sat\":\"0\",\"sun\":\"0\"}",
    "brand": "",
    "special": "",
    "custom": "[]",
    "ordr": "0",
    "slug": "studenac-sesvete-bjelovarska-ulica-2-sesvete",
    "lang": "",
    "pending": null,
    "created_on": "2024-11-06 03:51:26",
    "updated_on": null
  },
  {
    "id": "361",
    "title": "STUDENAC Sesvete, Savska cesta 72",
    "description": "",
    "street": "Savska cesta 72",
    "city": "Sesvete",
    "state": "",
    "postal_code": "10040",
    "country": "53",
    "lat": "45.8087616",
    "lng": "16.118147",
    "phone": "091 282 8844",
    "fax": "",
    "email": "",
    "website": "",
    "description_2": "",
    "logo_id": "3",
    "marker_id": "151",
    "is_disabled": "0",
    "open_hours": "{\"mon\":\"0\",\"tue\":\"0\",\"wed\":\"0\",\"thu\":\"0\",\"fri\":\"0\",\"sat\":\"0\",\"sun\":\"0\"}",
    "brand": "",
    "special": "",
    "custom": "[]",
    "ordr": "0",
    "slug": "studenac-sesvete-savska-cesta-72-sesvete",
    "lang": "",
    "pending": null,
    "created_on": "2024-11-06 03:51:26",
    "updated_on": null
  },
  {
    "id": "362",
    "title": "STUDENAC Silba, Silba 108",
    "description": "",
    "street": "Silba 108",
    "city": "Silba",
    "state": "",
    "postal_code": "23295",
    "country": "53",
    "lat": "44.3997441",
    "lng": "14.6843429",
    "phone": "091-489-0565",
    "fax": "",
    "email": "",
    "website": "",
    "description_2": "",
    "logo_id": "3",
    "marker_id": "151",
    "is_disabled": "0",
    "open_hours": "{\"mon\":\"0\",\"tue\":\"0\",\"wed\":\"0\",\"thu\":\"0\",\"fri\":\"0\",\"sat\":\"0\",\"sun\":\"0\"}",
    "brand": "",
    "special": "",
    "custom": "[]",
    "ordr": "0",
    "slug": "studenac-silba-silba-108-silba",
    "lang": "",
    "pending": null,
    "created_on": "2024-11-06 03:51:26",
    "updated_on": null
  },
  {
    "id": "363",
    "title": "STUDENAC Slano, Trg Ruđera Boškovića 25",
    "description": "",
    "street": "Trg Ruđera Boškovića 25",
    "city": "Slano",
    "state": "",
    "postal_code": "20232",
    "country": "53",
    "lat": "42.7876829",
    "lng": "17.8900676",
    "phone": "091 282 8666",
    "fax": "",
    "email": "",
    "website": "",
    "description_2": "",
    "logo_id": "3",
    "marker_id": "151",
    "is_disabled": "0",
    "open_hours": "{\"mon\":\"0\",\"tue\":\"0\",\"wed\":\"0\",\"thu\":\"0\",\"fri\":\"0\",\"sat\":\"0\",\"sun\":\"0\"}",
    "brand": "",
    "special": "",
    "custom": "[]",
    "ordr": "0",
    "slug": "studenac-slano-trg-rudera-boskovica-25-slano",
    "lang": "",
    "pending": null,
    "created_on": "2024-11-06 03:51:26",
    "updated_on": null
  },
  {
    "id": "364",
    "title": "STUDENAC Soline, Soline 5",
    "description": "",
    "street": "Soline 5",
    "city": "Soline",
    "state": "",
    "postal_code": "23287",
    "country": "53",
    "lat": "44.1405084",
    "lng": "14.8811949",
    "phone": "091-489-0095",
    "fax": "",
    "email": "",
    "website": "",
    "description_2": "",
    "logo_id": "3",
    "marker_id": "151",
    "is_disabled": "0",
    "open_hours": "{\"mon\":\"0\",\"tue\":\"0\",\"wed\":\"0\",\"thu\":\"0\",\"fri\":\"0\",\"sat\":\"0\",\"sun\":\"0\"}",
    "brand": "",
    "special": "",
    "custom": "[]",
    "ordr": "0",
    "slug": "studenac-soline-soline-5-soline",
    "lang": "",
    "pending": null,
    "created_on": "2024-11-06 03:51:26",
    "updated_on": null
  },
  {
    "id": "365",
    "title": "STUDENAC Split, Ulica Ruđera Boškovića 26",
    "description": "",
    "street": "Ulica Ruđera Boškovića 26",
    "city": "Split",
    "state": "",
    "postal_code": "21000",
    "country": "53",
    "lat": "43.509247",
    "lng": "16.4678093",
    "phone": "091-420-9334",
    "fax": "",
    "email": "",
    "website": "",
    "description_2": "",
    "logo_id": "3",
    "marker_id": "151",
    "is_disabled": "0",
    "open_hours": "{\"mon\":\"0\",\"tue\":\"0\",\"wed\":\"0\",\"thu\":\"0\",\"fri\":\"0\",\"sat\":\"0\",\"sun\":\"0\"}",
    "brand": "",
    "special": "",
    "custom": "[]",
    "ordr": "0",
    "slug": "studenac-split-ulica-rudera-boskovica-26-split",
    "lang": "",
    "pending": null,
    "created_on": "2024-11-06 03:51:26",
    "updated_on": null
  },
  {
    "id": "366",
    "title": "STUDENAC Split, Ulica Domovinskog rata 62",
    "description": "",
    "street": "Ulica Domovinskog rata 62",
    "city": "Split",
    "state": "",
    "postal_code": "21000",
    "country": "53",
    "lat": "43.5184071",
    "lng": "16.4481743",
    "phone": "091-606-1681",
    "fax": "",
    "email": "",
    "website": "",
    "description_2": "",
    "logo_id": "3",
    "marker_id": "151",
    "is_disabled": "0",
    "open_hours": "{\"mon\":\"0\",\"tue\":\"0\",\"wed\":\"0\",\"thu\":\"0\",\"fri\":\"0\",\"sat\":\"0\",\"sun\":\"0\"}",
    "brand": "",
    "special": "",
    "custom": "[]",
    "ordr": "0",
    "slug": "studenac-split-ulica-domovinskog-rata-62-split",
    "lang": "",
    "pending": null,
    "created_on": "2024-11-06 03:51:26",
    "updated_on": null
  },
  {
    "id": "367",
    "title": "STUDENAC Split, Slobode ulica 5",
    "description": "",
    "street": "Slobode ulica 5",
    "city": "Split",
    "state": "",
    "postal_code": "21000",
    "country": "53",
    "lat": "43.5065937",
    "lng": "16.4479396",
    "phone": "091-282-8318",
    "fax": "",
    "email": "",
    "website": "",
    "description_2": "",
    "logo_id": "3",
    "marker_id": "151",
    "is_disabled": "0",
    "open_hours": "{\"mon\":\"0\",\"tue\":\"0\",\"wed\":\"0\",\"thu\":\"0\",\"fri\":\"0\",\"sat\":\"0\",\"sun\":\"0\"}",
    "brand": "",
    "special": "",
    "custom": "[]",
    "ordr": "0",
    "slug": "studenac-split-slobode-ulica-5-split",
    "lang": "",
    "pending": null,
    "created_on": "2024-11-06 03:51:26",
    "updated_on": null
  },
  {
    "id": "368",
    "title": "STUDENAC Split, Sinjska ulica 5",
    "description": "",
    "street": "Sinjska ulica 5",
    "city": "Split",
    "state": "",
    "postal_code": "21000",
    "country": "53",
    "lat": "43.5106672",
    "lng": "16.4396399",
    "phone": "091-282-8504",
    "fax": "",
    "email": "",
    "website": "",
    "description_2": "",
    "logo_id": "3",
    "marker_id": "151",
    "is_disabled": "0",
    "open_hours": "{\"mon\":\"0\",\"tue\":\"0\",\"wed\":\"0\",\"thu\":\"0\",\"fri\":\"0\",\"sat\":\"0\",\"sun\":\"0\"}",
    "brand": "",
    "special": "",
    "custom": "[]",
    "ordr": "0",
    "slug": "studenac-split-sinjska-ulica-5-split",
    "lang": "",
    "pending": null,
    "created_on": "2024-11-06 03:51:26",
    "updated_on": null
  },
  {
    "id": "369",
    "title": "STUDENAC Split, Poljana kneza Trpimira 6",
    "description": "",
    "street": "Poljana kneza Trpimira 6",
    "city": "Split",
    "state": "",
    "postal_code": "21000",
    "country": "53",
    "lat": "43.5069578",
    "lng": "16.4431269",
    "phone": "091-611-1696",
    "fax": "",
    "email": "",
    "website": "",
    "description_2": "",
    "logo_id": "3",
    "marker_id": "151",
    "is_disabled": "0",
    "open_hours": "{\"mon\":\"0\",\"tue\":\"0\",\"wed\":\"0\",\"thu\":\"0\",\"fri\":\"0\",\"sat\":\"0\",\"sun\":\"0\"}",
    "brand": "",
    "special": "",
    "custom": "[]",
    "ordr": "0",
    "slug": "studenac-split-poljana-kneza-trpimira-6-split",
    "lang": "",
    "pending": null,
    "created_on": "2024-11-06 03:51:26",
    "updated_on": null
  },
  {
    "id": "370",
    "title": "STUDENAC Split, Put Firula 39",
    "description": "",
    "street": "Put Firula 39",
    "city": "Split",
    "state": "",
    "postal_code": "21000",
    "country": "53",
    "lat": "43.5015773",
    "lng": "16.4552382",
    "phone": "091-620-7443",
    "fax": "",
    "email": "",
    "website": "",
    "description_2": "",
    "logo_id": "3",
    "marker_id": "151",
    "is_disabled": "0",
    "open_hours": "{\"mon\":\"0\",\"tue\":\"0\",\"wed\":\"0\",\"thu\":\"0\",\"fri\":\"0\",\"sat\":\"0\",\"sun\":\"0\"}",
    "brand": "",
    "special": "",
    "custom": "[]",
    "ordr": "0",
    "slug": "studenac-split-put-firula-39-split",
    "lang": "",
    "pending": null,
    "created_on": "2024-11-06 03:51:26",
    "updated_on": null
  },
  {
    "id": "371",
    "title": "STUDENAC Split, Ulica bana Josipa Jelačića 1",
    "description": "",
    "street": "Ulica bana Josipa Jelačića 1",
    "city": "Split",
    "state": "",
    "postal_code": "21000",
    "country": "53",
    "lat": "43.5089477",
    "lng": "16.4356878",
    "phone": "091-282-9069",
    "fax": "",
    "email": "",
    "website": "",
    "description_2": "",
    "logo_id": "3",
    "marker_id": "151",
    "is_disabled": "0",
    "open_hours": "{\"mon\":\"0\",\"tue\":\"0\",\"wed\":\"0\",\"thu\":\"0\",\"fri\":\"0\",\"sat\":\"0\",\"sun\":\"0\"}",
    "brand": "",
    "special": "",
    "custom": "[]",
    "ordr": "0",
    "slug": "studenac-split-ulica-bana-josipa-jelacica-1-split",
    "lang": "",
    "pending": null,
    "created_on": "2024-11-06 03:51:26",
    "updated_on": null
  },
  {
    "id": "372",
    "title": "STUDENAC Split, Ulica Tolstojeva 29",
    "description": "",
    "street": "Ulica Tolstojeva 29",
    "city": "Split",
    "state": "",
    "postal_code": "21000",
    "country": "53",
    "lat": "43.5106625",
    "lng": "16.4438369",
    "phone": "091-320-9133",
    "fax": "",
    "email": "",
    "website": "",
    "description_2": "",
    "logo_id": "3",
    "marker_id": "151",
    "is_disabled": "0",
    "open_hours": "{\"mon\":\"0\",\"tue\":\"0\",\"wed\":\"0\",\"thu\":\"0\",\"fri\":\"0\",\"sat\":\"0\",\"sun\":\"0\"}",
    "brand": "",
    "special": "",
    "custom": "[]",
    "ordr": "0",
    "slug": "studenac-split-ulica-tolstojeva-29-split",
    "lang": "",
    "pending": null,
    "created_on": "2024-11-06 03:51:26",
    "updated_on": null
  },
  {
    "id": "373",
    "title": "STUDENAC Srebreno, Šetalište dr. Franje Tuđmana 8",
    "description": "",
    "street": "Šetalište dr. Franje Tuđmana 8",
    "city": "Srebreno",
    "state": "",
    "postal_code": "20207",
    "country": "53",
    "lat": "42.6232234",
    "lng": "18.1936509",
    "phone": "091-282-8484",
    "fax": "",
    "email": "",
    "website": "",
    "description_2": "",
    "logo_id": "3",
    "marker_id": "151",
    "is_disabled": "0",
    "open_hours": "{\"mon\":\"0\",\"tue\":\"0\",\"wed\":\"0\",\"thu\":\"0\",\"fri\":\"0\",\"sat\":\"0\",\"sun\":\"0\"}",
    "brand": "",
    "special": "",
    "custom": "[]",
    "ordr": "0",
    "slug": "studenac-srebreno-setaliste-dr-franje-tudmana-8-srebreno",
    "lang": "",
    "pending": null,
    "created_on": "2024-11-06 03:51:26",
    "updated_on": null
  },
  {
    "id": "374",
    "title": "STUDENAC Ston, Zamirje 1",
    "description": "",
    "street": "Zamirje 1",
    "city": "Ston",
    "state": "",
    "postal_code": "20230",
    "country": "53",
    "lat": "42.8380642",
    "lng": "17.6968011",
    "phone": "091-606-1565",
    "fax": "",
    "email": "",
    "website": "",
    "description_2": "",
    "logo_id": "3",
    "marker_id": "151",
    "is_disabled": "0",
    "open_hours": "{\"mon\":\"0\",\"tue\":\"0\",\"wed\":\"0\",\"thu\":\"0\",\"fri\":\"0\",\"sat\":\"0\",\"sun\":\"0\"}",
    "brand": "",
    "special": "",
    "custom": "[]",
    "ordr": "0",
    "slug": "studenac-ston-zamirje-1-ston",
    "lang": "",
    "pending": null,
    "created_on": "2024-11-06 03:51:26",
    "updated_on": null
  },
  {
    "id": "375",
    "title": "STUDENAC Supetar, Porat 30A",
    "description": "",
    "street": "Porat 30A",
    "city": "Supetar",
    "state": "",
    "postal_code": "21400",
    "country": "53",
    "lat": "43.3841435",
    "lng": "16.5532925",
    "phone": "091-420-9387",
    "fax": "",
    "email": "",
    "website": "",
    "description_2": "",
    "logo_id": "3",
    "marker_id": "151",
    "is_disabled": "0",
    "open_hours": "{\"mon\":\"0\",\"tue\":\"0\",\"wed\":\"0\",\"thu\":\"0\",\"fri\":\"0\",\"sat\":\"0\",\"sun\":\"0\"}",
    "brand": "",
    "special": "",
    "custom": "[]",
    "ordr": "0",
    "slug": "studenac-supetar-porat-30a-supetar",
    "lang": "",
    "pending": null,
    "created_on": "2024-11-06 03:51:26",
    "updated_on": null
  },
  {
    "id": "376",
    "title": "STUDENAC Supetar, Put Vele Luke 23",
    "description": "",
    "street": "Put Vele Luke 23",
    "city": "Supetar",
    "state": "",
    "postal_code": "21400",
    "country": "53",
    "lat": "43.3848647",
    "lng": "16.5463009",
    "phone": "091-611-1683",
    "fax": "",
    "email": "",
    "website": "",
    "description_2": "",
    "logo_id": "3",
    "marker_id": "151",
    "is_disabled": "0",
    "open_hours": "{\"mon\":\"0\",\"tue\":\"0\",\"wed\":\"0\",\"thu\":\"0\",\"fri\":\"0\",\"sat\":\"0\",\"sun\":\"0\"}",
    "brand": "",
    "special": "",
    "custom": "[]",
    "ordr": "0",
    "slug": "studenac-supetar-put-vele-luke-23-supetar",
    "lang": "",
    "pending": null,
    "created_on": "2024-11-06 03:51:26",
    "updated_on": null
  },
  {
    "id": "377",
    "title": "STUDENAC Sutivan, Ulica Put blata 2",
    "description": "",
    "street": "Ulica Put blata 2",
    "city": "Sutivan",
    "state": "",
    "postal_code": "21403",
    "country": "53",
    "lat": "43.3839986",
    "lng": "16.4791571",
    "phone": "091-611-1673 ili 099-215-4707",
    "fax": "",
    "email": "",
    "website": "",
    "description_2": "",
    "logo_id": "3",
    "marker_id": "151",
    "is_disabled": "0",
    "open_hours": "{\"mon\":\"0\",\"tue\":\"0\",\"wed\":\"0\",\"thu\":\"0\",\"fri\":\"0\",\"sat\":\"0\",\"sun\":\"0\"}",
    "brand": "",
    "special": "",
    "custom": "[]",
    "ordr": "0",
    "slug": "studenac-sutivan-ulica-put-blata-2-sutivan",
    "lang": "",
    "pending": null,
    "created_on": "2024-11-06 03:51:26",
    "updated_on": null
  },
  {
    "id": "378",
    "title": "STUDENAC Sućuraj, Riva 1",
    "description": "",
    "street": "Riva 1",
    "city": "Sućuraj",
    "state": "",
    "postal_code": "21469",
    "country": "53",
    "lat": "43.1248647",
    "lng": "17.1875859",
    "phone": "091-282-8047",
    "fax": "",
    "email": "",
    "website": "",
    "description_2": "",
    "logo_id": "3",
    "marker_id": "151",
    "is_disabled": "0",
    "open_hours": "{\"mon\":\"0\",\"tue\":\"0\",\"wed\":\"0\",\"thu\":\"0\",\"fri\":\"0\",\"sat\":\"0\",\"sun\":\"0\"}",
    "brand": "",
    "special": "",
    "custom": "[]",
    "ordr": "0",
    "slug": "studenac-sucuraj-riva-1-sucuraj",
    "lang": "",
    "pending": null,
    "created_on": "2024-11-06 03:51:26",
    "updated_on": null
  },
  {
    "id": "379",
    "title": "STUDENAC Sveti filip i jakov, Jadranska cesta 50",
    "description": "",
    "street": "Jadranska cesta 50",
    "city": "Sveti filip i jakov",
    "state": "",
    "postal_code": "23207",
    "country": "53",
    "lat": "43.9639633",
    "lng": "15.4255275",
    "phone": "091-606-1696",
    "fax": "",
    "email": "",
    "website": "",
    "description_2": "",
    "logo_id": "3",
    "marker_id": "151",
    "is_disabled": "0",
    "open_hours": "{\"mon\":\"0\",\"tue\":\"0\",\"wed\":\"0\",\"thu\":\"0\",\"fri\":\"0\",\"sat\":\"0\",\"sun\":\"0\"}",
    "brand": "",
    "special": "",
    "custom": "[]",
    "ordr": "0",
    "slug": "studenac-sveti-filip-i-jakov-jadranska-cesta-50-sveti-filip-i-jakov",
    "lang": "",
    "pending": null,
    "created_on": "2024-11-06 03:51:26",
    "updated_on": null
  },
  {
    "id": "380",
    "title": "STUDENAC Trogir, Kardinala A. Stepinca 38",
    "description": "",
    "street": "Kardinala A. Stepinca 38",
    "city": "Trogir",
    "state": "",
    "postal_code": "21220",
    "country": "53",
    "lat": "43.516387",
    "lng": "16.2501894",
    "phone": "091-282-8439",
    "fax": "",
    "email": "",
    "website": "",
    "description_2": "",
    "logo_id": "3",
    "marker_id": "151",
    "is_disabled": "0",
    "open_hours": "{\"mon\":\"0\",\"tue\":\"0\",\"wed\":\"0\",\"thu\":\"0\",\"fri\":\"0\",\"sat\":\"0\",\"sun\":\"0\"}",
    "brand": "",
    "special": "",
    "custom": "[]",
    "ordr": "0",
    "slug": "studenac-trogir-kardinala-a-stepinca-38-trogir",
    "lang": "",
    "pending": null,
    "created_on": "2024-11-06 03:51:26",
    "updated_on": null
  },
  {
    "id": "381",
    "title": "STUDENAC Trsteno, Na vodi 26",
    "description": "",
    "street": "Na vodi 26",
    "city": "Trsteno",
    "state": "",
    "postal_code": "20233",
    "country": "53",
    "lat": "42.7154821",
    "lng": "17.9761199",
    "phone": "091-282-9086",
    "fax": "",
    "email": "",
    "website": "",
    "description_2": "",
    "logo_id": "3",
    "marker_id": "151",
    "is_disabled": "0",
    "open_hours": "{\"mon\":\"0\",\"tue\":\"0\",\"wed\":\"0\",\"thu\":\"0\",\"fri\":\"0\",\"sat\":\"0\",\"sun\":\"0\"}",
    "brand": "",
    "special": "",
    "custom": "[]",
    "ordr": "0",
    "slug": "studenac-trsteno-na-vodi-26-trsteno",
    "lang": "",
    "pending": null,
    "created_on": "2024-11-06 03:51:26",
    "updated_on": null
  },
  {
    "id": "382",
    "title": "STUDENAC Tučepi, Kraj 97 A",
    "description": "",
    "street": "Kraj 97 A",
    "city": "Tučepi",
    "state": "",
    "postal_code": "21325",
    "country": "53",
    "lat": "43.2621908",
    "lng": "17.0606334",
    "phone": "091-282-8431",
    "fax": "",
    "email": "",
    "website": "",
    "description_2": "",
    "logo_id": "3",
    "marker_id": "151",
    "is_disabled": "0",
    "open_hours": "{\"mon\":\"0\",\"tue\":\"0\",\"wed\":\"0\",\"thu\":\"0\",\"fri\":\"0\",\"sat\":\"0\",\"sun\":\"0\"}",
    "brand": "",
    "special": "",
    "custom": "[]",
    "ordr": "0",
    "slug": "studenac-tucepi-kraj-97-a-tucepi",
    "lang": "",
    "pending": null,
    "created_on": "2024-11-06 03:51:26",
    "updated_on": null
  },
  {
    "id": "383",
    "title": "STUDENAC Vela luka, Obala 2",
    "description": "",
    "street": "Obala 2",
    "city": "Vela luka",
    "state": "",
    "postal_code": "20270",
    "country": "53",
    "lat": "42.9650693",
    "lng": "16.7159215",
    "phone": "091-627-8021",
    "fax": "",
    "email": "",
    "website": "",
    "description_2": "",
    "logo_id": "3",
    "marker_id": "151",
    "is_disabled": "0",
    "open_hours": "{\"mon\":\"0\",\"tue\":\"0\",\"wed\":\"0\",\"thu\":\"0\",\"fri\":\"0\",\"sat\":\"0\",\"sun\":\"0\"}",
    "brand": "",
    "special": "",
    "custom": "[]",
    "ordr": "0",
    "slug": "studenac-vela-luka-obala-2-vela-luka",
    "lang": "",
    "pending": null,
    "created_on": "2024-11-06 03:51:26",
    "updated_on": null
  },
  {
    "id": "384",
    "title": "STUDENAC Viganj, Viganj 60",
    "description": "",
    "street": "Viganj 60",
    "city": "Viganj",
    "state": "",
    "postal_code": "20267",
    "country": "53",
    "lat": "42.9837406",
    "lng": "17.0987731",
    "phone": "091-611-1872",
    "fax": "",
    "email": "",
    "website": "",
    "description_2": "",
    "logo_id": "3",
    "marker_id": "151",
    "is_disabled": "0",
    "open_hours": "{\"mon\":\"0\",\"tue\":\"0\",\"wed\":\"0\",\"thu\":\"0\",\"fri\":\"0\",\"sat\":\"0\",\"sun\":\"0\"}",
    "brand": "",
    "special": "",
    "custom": "[]",
    "ordr": "0",
    "slug": "studenac-viganj-viganj-60-viganj",
    "lang": "",
    "pending": null,
    "created_on": "2024-11-06 03:51:26",
    "updated_on": null
  },
  {
    "id": "385",
    "title": "STUDENAC Vir, Miljkovica x 1",
    "description": "",
    "street": "Miljkovica x 1",
    "city": "Vir",
    "state": "",
    "postal_code": "23234",
    "country": "53",
    "lat": "44.2951387",
    "lng": "15.108655",
    "phone": "091-613-9259",
    "fax": "",
    "email": "",
    "website": "",
    "description_2": "",
    "logo_id": "3",
    "marker_id": "151",
    "is_disabled": "0",
    "open_hours": "{\"mon\":\"0\",\"tue\":\"0\",\"wed\":\"0\",\"thu\":\"0\",\"fri\":\"0\",\"sat\":\"0\",\"sun\":\"0\"}",
    "brand": "",
    "special": "",
    "custom": "[]",
    "ordr": "0",
    "slug": "studenac-vir-miljkovica-x-1-vir",
    "lang": "",
    "pending": null,
    "created_on": "2024-11-06 03:51:26",
    "updated_on": null
  },
  {
    "id": "386",
    "title": "STUDENAC Vis, Šetalište Stara Issa 1",
    "description": "",
    "street": "Šetalište Stara Issa 1",
    "city": "Vis",
    "state": "",
    "postal_code": "21480",
    "country": "53",
    "lat": "43.0616746",
    "lng": "16.1834958",
    "phone": "091-606-1556",
    "fax": "",
    "email": "",
    "website": "",
    "description_2": "",
    "logo_id": "3",
    "marker_id": "151",
    "is_disabled": "0",
    "open_hours": "{\"mon\":\"0\",\"tue\":\"0\",\"wed\":\"0\",\"thu\":\"0\",\"fri\":\"0\",\"sat\":\"0\",\"sun\":\"0\"}",
    "brand": "",
    "special": "",
    "custom": "[]",
    "ordr": "0",
    "slug": "studenac-vis-setaliste-stara-issa-1-vis",
    "lang": "",
    "pending": null,
    "created_on": "2024-11-06 03:51:26",
    "updated_on": null
  },
  {
    "id": "387",
    "title": "STUDENAC Viškovo, Viškovo 112B",
    "description": "",
    "street": "Viškovo 112B",
    "city": "Viškovo",
    "state": "",
    "postal_code": "51216",
    "country": "53",
    "lat": "45.378003",
    "lng": "14.3861979",
    "phone": "091-489-0311",
    "fax": "",
    "email": "",
    "website": "",
    "description_2": "",
    "logo_id": "3",
    "marker_id": "151",
    "is_disabled": "0",
    "open_hours": "{\"mon\":\"0\",\"tue\":\"0\",\"wed\":\"0\",\"thu\":\"0\",\"fri\":\"0\",\"sat\":\"0\",\"sun\":\"0\"}",
    "brand": "",
    "special": "",
    "custom": "[]",
    "ordr": "0",
    "slug": "studenac-viskovo-viskovo-112b-viskovo",
    "lang": "",
    "pending": null,
    "created_on": "2024-11-06 03:51:26",
    "updated_on": null
  },
  {
    "id": "388",
    "title": "STUDENAC Vodnjan, Narodni trg 9",
    "description": "",
    "street": "Narodni trg 9",
    "city": "Vodnjan",
    "state": "",
    "postal_code": "52215",
    "country": "53",
    "lat": "44.9604154",
    "lng": "13.8494876",
    "phone": "091-282-8333",
    "fax": "",
    "email": "",
    "website": "",
    "description_2": "",
    "logo_id": "3",
    "marker_id": "151",
    "is_disabled": "0",
    "open_hours": "{\"mon\":\"0\",\"tue\":\"0\",\"wed\":\"0\",\"thu\":\"0\",\"fri\":\"0\",\"sat\":\"0\",\"sun\":\"0\"}",
    "brand": "",
    "special": "",
    "custom": "[]",
    "ordr": "0",
    "slug": "studenac-vodnjan-narodni-trg-9-vodnjan",
    "lang": "",
    "pending": null,
    "created_on": "2024-11-06 03:51:26",
    "updated_on": null
  },
  {
    "id": "389",
    "title": "STUDENAC Vugrovec, Ulica Augusta Šenoe 49",
    "description": "",
    "street": "Ulica Augusta Šenoe 49",
    "city": "Vugrovec",
    "state": "",
    "postal_code": "10360",
    "country": "53",
    "lat": "45.8805274",
    "lng": "16.1088642",
    "phone": "091 282 8859",
    "fax": "",
    "email": "",
    "website": "",
    "description_2": "",
    "logo_id": "3",
    "marker_id": "151",
    "is_disabled": "0",
    "open_hours": "{\"mon\":\"0\",\"tue\":\"0\",\"wed\":\"0\",\"thu\":\"0\",\"fri\":\"0\",\"sat\":\"0\",\"sun\":\"0\"}",
    "brand": "",
    "special": "",
    "custom": "[]",
    "ordr": "0",
    "slug": "studenac-vugrovec-ulica-augusta-senoe-49-vugrovec",
    "lang": "",
    "pending": null,
    "created_on": "2024-11-06 03:51:26",
    "updated_on": null
  },
  {
    "id": "390",
    "title": "STUDENAC Zadar, Knezova Šubića Bribirskih 3",
    "description": "",
    "street": "Knezova Šubića Bribirskih 3",
    "city": "Zadar",
    "state": "",
    "postal_code": "23000",
    "country": "53",
    "lat": "44.1152941",
    "lng": "15.2263266",
    "phone": "091-489-0677",
    "fax": "",
    "email": "",
    "website": "",
    "description_2": "",
    "logo_id": "3",
    "marker_id": "151",
    "is_disabled": "0",
    "open_hours": "{\"mon\":\"0\",\"tue\":\"0\",\"wed\":\"0\",\"thu\":\"0\",\"fri\":\"0\",\"sat\":\"0\",\"sun\":\"0\"}",
    "brand": "",
    "special": "",
    "custom": "[]",
    "ordr": "0",
    "slug": "studenac-zadar-knezova-subica-bribirskih-3-zadar",
    "lang": "",
    "pending": null,
    "created_on": "2024-11-06 03:51:26",
    "updated_on": null
  },
  {
    "id": "391",
    "title": "STUDENAC Zadar, Ulica Miroslava Krleže 5 A",
    "description": "",
    "street": "Ulica Miroslava Krleže 5 A",
    "city": "Zadar",
    "state": "",
    "postal_code": "23000",
    "country": "53",
    "lat": "44.1228107",
    "lng": "15.227677",
    "phone": "091-606-1690",
    "fax": "",
    "email": "",
    "website": "",
    "description_2": "",
    "logo_id": "3",
    "marker_id": "151",
    "is_disabled": "0",
    "open_hours": "{\"mon\":\"0\",\"tue\":\"0\",\"wed\":\"0\",\"thu\":\"0\",\"fri\":\"0\",\"sat\":\"0\",\"sun\":\"0\"}",
    "brand": "",
    "special": "",
    "custom": "[]",
    "ordr": "0",
    "slug": "studenac-zadar-ulica-miroslava-krleze-5-a-zadar",
    "lang": "",
    "pending": null,
    "created_on": "2024-11-06 03:51:26",
    "updated_on": null
  },
  {
    "id": "392",
    "title": "STUDENAC Zadar, Put Vrela 41B",
    "description": "",
    "street": "Put Vrela 41B",
    "city": "Zadar",
    "state": "",
    "postal_code": "23000",
    "country": "53",
    "lat": "44.144115",
    "lng": "15.243243",
    "phone": "091-627-8410",
    "fax": "",
    "email": "",
    "website": "",
    "description_2": "",
    "logo_id": "3",
    "marker_id": "151",
    "is_disabled": "0",
    "open_hours": "{\"mon\":\"0\",\"tue\":\"0\",\"wed\":\"0\",\"thu\":\"0\",\"fri\":\"0\",\"sat\":\"0\",\"sun\":\"0\"}",
    "brand": "",
    "special": "",
    "custom": "[]",
    "ordr": "0",
    "slug": "studenac-zadar-put-vrela-41b-zadar",
    "lang": "",
    "pending": null,
    "created_on": "2024-11-06 03:51:26",
    "updated_on": null
  },
  {
    "id": "393",
    "title": "STUDENAC Zadar, Ulica Stjepana Radića 1",
    "description": "",
    "street": "Ulica Stjepana Radića 1",
    "city": "Zadar",
    "state": "",
    "postal_code": "23000",
    "country": "53",
    "lat": "44.1165194",
    "lng": "15.2309454",
    "phone": "091-282-8066",
    "fax": "",
    "email": "",
    "website": "",
    "description_2": "",
    "logo_id": "3",
    "marker_id": "151",
    "is_disabled": "0",
    "open_hours": "{\"mon\":\"0\",\"tue\":\"0\",\"wed\":\"0\",\"thu\":\"0\",\"fri\":\"0\",\"sat\":\"0\",\"sun\":\"0\"}",
    "brand": "",
    "special": "",
    "custom": "[]",
    "ordr": "0",
    "slug": "studenac-zadar-ulica-stjepana-radica-1-zadar",
    "lang": "",
    "pending": null,
    "created_on": "2024-11-06 03:51:26",
    "updated_on": null
  },
  {
    "id": "394",
    "title": "STUDENAC Zadar, Benkovačka cesta 23",
    "description": "",
    "street": "Benkovačka cesta 23",
    "city": "Zadar",
    "state": "",
    "postal_code": "23000",
    "country": "53",
    "lat": "44.1043255",
    "lng": "15.2689377",
    "phone": "091-282-8266",
    "fax": "",
    "email": "",
    "website": "",
    "description_2": "",
    "logo_id": "3",
    "marker_id": "151",
    "is_disabled": "0",
    "open_hours": "{\"mon\":\"0\",\"tue\":\"0\",\"wed\":\"0\",\"thu\":\"0\",\"fri\":\"0\",\"sat\":\"0\",\"sun\":\"0\"}",
    "brand": "",
    "special": "",
    "custom": "[]",
    "ordr": "0",
    "slug": "studenac-zadar-benkovacka-cesta-23-zadar",
    "lang": "",
    "pending": null,
    "created_on": "2024-11-06 03:51:26",
    "updated_on": null
  },
  {
    "id": "395",
    "title": "STUDENAC Zadar, Ulica Nikole Tesle 17A",
    "description": "",
    "street": "Ulica Nikole Tesle 17A",
    "city": "Zadar",
    "state": "",
    "postal_code": "23000",
    "country": "53",
    "lat": "44.1241577",
    "lng": "15.2402461",
    "phone": "091-282-8503",
    "fax": "",
    "email": "",
    "website": "",
    "description_2": "",
    "logo_id": "3",
    "marker_id": "151",
    "is_disabled": "0",
    "open_hours": "{\"mon\":\"0\",\"tue\":\"0\",\"wed\":\"0\",\"thu\":\"0\",\"fri\":\"0\",\"sat\":\"0\",\"sun\":\"0\"}",
    "brand": "",
    "special": "",
    "custom": "[]",
    "ordr": "0",
    "slug": "studenac-zadar-ulica-nikole-tesle-17a-zadar",
    "lang": "",
    "pending": null,
    "created_on": "2024-11-06 03:51:26",
    "updated_on": null
  },
  {
    "id": "396",
    "title": "STUDENAC Zadar, Ul. Roberta F. Mihanovića 62",
    "description": "",
    "street": "Ul. Roberta F. Mihanovića 62",
    "city": "Zadar",
    "state": "",
    "postal_code": "23000",
    "country": "53",
    "lat": "44.1389283",
    "lng": "15.2199778",
    "phone": "091-282-8507",
    "fax": "",
    "email": "",
    "website": "",
    "description_2": "",
    "logo_id": "3",
    "marker_id": "151",
    "is_disabled": "0",
    "open_hours": "{\"mon\":\"0\",\"tue\":\"0\",\"wed\":\"0\",\"thu\":\"0\",\"fri\":\"0\",\"sat\":\"0\",\"sun\":\"0\"}",
    "brand": "",
    "special": "",
    "custom": "[]",
    "ordr": "0",
    "slug": "studenac-zadar-ul-roberta-f-mihanovica-62-zadar",
    "lang": "",
    "pending": null,
    "created_on": "2024-11-06 03:51:26",
    "updated_on": null
  },
  {
    "id": "397",
    "title": "STUDENAC Zagreb, Ulica Vjekoslava Heinzela 9",
    "description": "",
    "street": "Ulica Vjekoslava Heinzela 9",
    "city": "Zagreb",
    "state": "",
    "postal_code": "10000",
    "country": "53",
    "lat": "45.8132652",
    "lng": "15.9992057",
    "phone": "091-282-8163",
    "fax": "",
    "email": "",
    "website": "",
    "description_2": "",
    "logo_id": "3",
    "marker_id": "151",
    "is_disabled": "0",
    "open_hours": "{\"mon\":\"0\",\"tue\":\"0\",\"wed\":\"0\",\"thu\":\"0\",\"fri\":\"0\",\"sat\":\"0\",\"sun\":\"0\"}",
    "brand": "",
    "special": "",
    "custom": "[]",
    "ordr": "0",
    "slug": "studenac-zagreb-ulica-vjekoslava-heinzela-9-zagreb",
    "lang": "",
    "pending": null,
    "created_on": "2024-11-06 03:51:26",
    "updated_on": null
  },
  {
    "id": "398",
    "title": "STUDENAC Zagreb, Ulica Kneza Mislava 1",
    "description": "",
    "street": "Ulica Kneza Mislava 1",
    "city": "Zagreb",
    "state": "",
    "postal_code": "10110",
    "country": "53",
    "lat": "45.8082706",
    "lng": "15.9842873",
    "phone": "091-282-8517",
    "fax": "",
    "email": "",
    "website": "",
    "description_2": "",
    "logo_id": "3",
    "marker_id": "151",
    "is_disabled": "0",
    "open_hours": "{\"mon\":\"0\",\"tue\":\"0\",\"wed\":\"0\",\"thu\":\"0\",\"fri\":\"0\",\"sat\":\"0\",\"sun\":\"0\"}",
    "brand": "",
    "special": "",
    "custom": "[]",
    "ordr": "0",
    "slug": "studenac-zagreb-ulica-kneza-mislava-1-zagreb",
    "lang": "",
    "pending": null,
    "created_on": "2024-11-06 03:51:26",
    "updated_on": null
  },
  {
    "id": "399",
    "title": "STUDENAC Zagreb, Koledinečka ulica 3",
    "description": "",
    "street": "Koledinečka ulica 3",
    "city": "Zagreb",
    "state": "",
    "postal_code": "10000",
    "country": "53",
    "lat": "45.8323839",
    "lng": "16.0576231",
    "phone": "091 282 8798",
    "fax": "",
    "email": "",
    "website": "",
    "description_2": "",
    "logo_id": "3",
    "marker_id": "151",
    "is_disabled": "0",
    "open_hours": "{\"mon\":\"0\",\"tue\":\"0\",\"wed\":\"0\",\"thu\":\"0\",\"fri\":\"0\",\"sat\":\"0\",\"sun\":\"0\"}",
    "brand": "",
    "special": "",
    "custom": "[]",
    "ordr": "0",
    "slug": "studenac-zagreb-koledinecka-ulica-3-zagreb",
    "lang": "",
    "pending": null,
    "created_on": "2024-11-06 03:51:26",
    "updated_on": null
  },
  {
    "id": "400",
    "title": "STUDENAC Zagreb, Savska cesta 81",
    "description": "",
    "street": "Savska cesta 81",
    "city": "Zagreb",
    "state": "",
    "postal_code": "10000",
    "country": "53",
    "lat": "45.7965851",
    "lng": "15.9607907",
    "phone": "091-4890-206",
    "fax": "",
    "email": "",
    "website": "",
    "description_2": "",
    "logo_id": "3",
    "marker_id": "151",
    "is_disabled": "0",
    "open_hours": "{\"mon\":\"0\",\"tue\":\"0\",\"wed\":\"0\",\"thu\":\"0\",\"fri\":\"0\",\"sat\":\"0\",\"sun\":\"0\"}",
    "brand": "",
    "special": "",
    "custom": "[]",
    "ordr": "0",
    "slug": "studenac-zagreb-savska-cesta-81-zagreb",
    "lang": "",
    "pending": null,
    "created_on": "2024-11-06 03:51:26",
    "updated_on": null
  },
  {
    "id": "401",
    "title": "STUDENAC Zagreb, Ulica kralja Zvonimira 26",
    "description": "",
    "street": "Ulica kralja Zvonimira 26",
    "city": "Zagreb",
    "state": "",
    "postal_code": "10000",
    "country": "53",
    "lat": "45.81016",
    "lng": "15.9934842",
    "phone": "091 282 8814",
    "fax": "",
    "email": "",
    "website": "",
    "description_2": "",
    "logo_id": "3",
    "marker_id": "151",
    "is_disabled": "0",
    "open_hours": "{\"mon\":\"0\",\"tue\":\"0\",\"wed\":\"0\",\"thu\":\"0\",\"fri\":\"0\",\"sat\":\"0\",\"sun\":\"0\"}",
    "brand": "",
    "special": "",
    "custom": "[]",
    "ordr": "0",
    "slug": "studenac-zagreb-ulica-kralja-zvonimira-26-zagreb",
    "lang": "",
    "pending": null,
    "created_on": "2024-11-06 03:51:26",
    "updated_on": null
  },
  {
    "id": "402",
    "title": "STUDENAC Zagreb, Ulica Braće Domany 2",
    "description": "",
    "street": "Ulica Braće Domany 2",
    "city": "Zagreb",
    "state": "",
    "postal_code": "10000",
    "country": "53",
    "lat": "45.7898186",
    "lng": "15.9381769",
    "phone": "098-981-4303",
    "fax": "",
    "email": "",
    "website": "",
    "description_2": "",
    "logo_id": "3",
    "marker_id": "151",
    "is_disabled": "0",
    "open_hours": "{\"mon\":\"0\",\"tue\":\"0\",\"wed\":\"0\",\"thu\":\"0\",\"fri\":\"0\",\"sat\":\"0\",\"sun\":\"0\"}",
    "brand": "",
    "special": "",
    "custom": "[]",
    "ordr": "0",
    "slug": "studenac-zagreb-ulica-brace-domany-2-zagreb",
    "lang": "",
    "pending": null,
    "created_on": "2024-11-06 03:51:26",
    "updated_on": null
  },
  {
    "id": "403",
    "title": "STUDENAC Zagreb, Ulica Andrije Hebranga 27",
    "description": "",
    "street": "Ulica Andrije Hebranga 27",
    "city": "Zagreb",
    "state": "",
    "postal_code": "10000",
    "country": "53",
    "lat": "45.8089057",
    "lng": "15.9724829",
    "phone": "091 282 8825",
    "fax": "",
    "email": "",
    "website": "",
    "description_2": "",
    "logo_id": "3",
    "marker_id": "151",
    "is_disabled": "0",
    "open_hours": "{\"mon\":\"0\",\"tue\":\"0\",\"wed\":\"0\",\"thu\":\"0\",\"fri\":\"0\",\"sat\":\"0\",\"sun\":\"0\"}",
    "brand": "",
    "special": "",
    "custom": "[]",
    "ordr": "0",
    "slug": "studenac-zagreb-ulica-andrije-hebranga-27-zagreb",
    "lang": "",
    "pending": null,
    "created_on": "2024-11-06 03:51:26",
    "updated_on": null
  },
  {
    "id": "404",
    "title": "STUDENAC Zagreb, Trešnjevački trg 2",
    "description": "",
    "street": "Trešnjevački trg 2",
    "city": "Zagreb",
    "state": "",
    "postal_code": "10000",
    "country": "53",
    "lat": "45.799109",
    "lng": "15.953528",
    "phone": "091 282 8832",
    "fax": "",
    "email": "",
    "website": "",
    "description_2": "",
    "logo_id": "3",
    "marker_id": "151",
    "is_disabled": "0",
    "open_hours": "{\"mon\":\"0\",\"tue\":\"0\",\"wed\":\"0\",\"thu\":\"0\",\"fri\":\"0\",\"sat\":\"0\",\"sun\":\"0\"}",
    "brand": "",
    "special": "",
    "custom": "[]",
    "ordr": "0",
    "slug": "studenac-zagreb-tresnjevacki-trg-2-zagreb",
    "lang": "",
    "pending": null,
    "created_on": "2024-11-06 03:51:26",
    "updated_on": null
  },
  {
    "id": "405",
    "title": "STUDENAC Zagreb, Jablanska ulica 22",
    "description": "",
    "street": "Jablanska ulica 22",
    "city": "Zagreb",
    "state": "",
    "postal_code": "10000",
    "country": "53",
    "lat": "45.7981596",
    "lng": "15.9135444",
    "phone": "091 282 8836",
    "fax": "",
    "email": "",
    "website": "",
    "description_2": "",
    "logo_id": "3",
    "marker_id": "151",
    "is_disabled": "0",
    "open_hours": "{\"mon\":\"0\",\"tue\":\"0\",\"wed\":\"0\",\"thu\":\"0\",\"fri\":\"0\",\"sat\":\"0\",\"sun\":\"0\"}",
    "brand": "",
    "special": "",
    "custom": "[]",
    "ordr": "0",
    "slug": "studenac-zagreb-jablanska-ulica-22-zagreb",
    "lang": "",
    "pending": null,
    "created_on": "2024-11-06 03:51:26",
    "updated_on": null
  },
  {
    "id": "406",
    "title": "STUDENAC Zagreb, Samoborska cesta 251",
    "description": "",
    "street": "Samoborska cesta 251",
    "city": "Zagreb",
    "state": "",
    "postal_code": "10000",
    "country": "53",
    "lat": "45.8121901",
    "lng": "15.8641188",
    "phone": "091-489-0381",
    "fax": "",
    "email": "",
    "website": "",
    "description_2": "",
    "logo_id": "3",
    "marker_id": "151",
    "is_disabled": "0",
    "open_hours": "{\"mon\":\"0\",\"tue\":\"0\",\"wed\":\"0\",\"thu\":\"0\",\"fri\":\"0\",\"sat\":\"0\",\"sun\":\"0\"}",
    "brand": "",
    "special": "",
    "custom": "[]",
    "ordr": "0",
    "slug": "studenac-zagreb-samoborska-cesta-251-zagreb",
    "lang": "",
    "pending": null,
    "created_on": "2024-11-06 03:51:26",
    "updated_on": null
  },
  {
    "id": "407",
    "title": "STUDENAC Zagreb, Ulica Božidara Adžije 42",
    "description": "",
    "street": "Ulica Božidara Adžije 42",
    "city": "Zagreb",
    "state": "",
    "postal_code": "10000",
    "country": "53",
    "lat": "45.8041956",
    "lng": "15.955263",
    "phone": "091 282 8799",
    "fax": "",
    "email": "",
    "website": "",
    "description_2": "",
    "logo_id": "3",
    "marker_id": "151",
    "is_disabled": "0",
    "open_hours": "{\"mon\":\"0\",\"tue\":\"0\",\"wed\":\"0\",\"thu\":\"0\",\"fri\":\"0\",\"sat\":\"0\",\"sun\":\"0\"}",
    "brand": "",
    "special": "",
    "custom": "[]",
    "ordr": "0",
    "slug": "studenac-zagreb-ulica-bozidara-adzije-42-zagreb",
    "lang": "",
    "pending": null,
    "created_on": "2024-11-06 03:51:26",
    "updated_on": null
  },
  {
    "id": "408",
    "title": "STUDENAC Zagreb, Vlaška ulica 83",
    "description": "",
    "street": "Vlaška ulica 83",
    "city": "Zagreb",
    "state": "",
    "postal_code": "10000",
    "country": "53",
    "lat": "45.8140179",
    "lng": "15.9889587",
    "phone": "091-282-8151",
    "fax": "",
    "email": "",
    "website": "",
    "description_2": "",
    "logo_id": "3",
    "marker_id": "151",
    "is_disabled": "0",
    "open_hours": "{\"mon\":\"0\",\"tue\":\"0\",\"wed\":\"0\",\"thu\":\"0\",\"fri\":\"0\",\"sat\":\"0\",\"sun\":\"0\"}",
    "brand": "",
    "special": "",
    "custom": "[]",
    "ordr": "0",
    "slug": "studenac-zagreb-vlaska-ulica-83-zagreb",
    "lang": "",
    "pending": null,
    "created_on": "2024-11-06 03:51:26",
    "updated_on": null
  },
  {
    "id": "409",
    "title": "STUDENAC Zagreb, Žigulići 3",
    "description": "",
    "street": "Žigulići 3",
    "city": "Zagreb",
    "state": "",
    "postal_code": "10000",
    "country": "53",
    "lat": "45.8642991",
    "lng": "16.0365151",
    "phone": "091 282 8840",
    "fax": "",
    "email": "",
    "website": "",
    "description_2": "",
    "logo_id": "3",
    "marker_id": "151",
    "is_disabled": "0",
    "open_hours": "{\"mon\":\"0\",\"tue\":\"0\",\"wed\":\"0\",\"thu\":\"0\",\"fri\":\"0\",\"sat\":\"0\",\"sun\":\"0\"}",
    "brand": "",
    "special": "",
    "custom": "[]",
    "ordr": "0",
    "slug": "studenac-zagreb-zigulici-3-zagreb",
    "lang": "",
    "pending": null,
    "created_on": "2024-11-06 03:51:26",
    "updated_on": null
  },
  {
    "id": "410",
    "title": "STUDENAC Zagreb, Ulica kneza Trpimira 31",
    "description": "",
    "street": "Ulica kneza Trpimira 31",
    "city": "Zagreb",
    "state": "",
    "postal_code": "10000",
    "country": "53",
    "lat": "45.8057771",
    "lng": "15.9854918",
    "phone": "091-627-8405",
    "fax": "",
    "email": "",
    "website": "",
    "description_2": "",
    "logo_id": "3",
    "marker_id": "151",
    "is_disabled": "0",
    "open_hours": "{\"mon\":\"0\",\"tue\":\"0\",\"wed\":\"0\",\"thu\":\"0\",\"fri\":\"0\",\"sat\":\"0\",\"sun\":\"0\"}",
    "brand": "",
    "special": "",
    "custom": "[]",
    "ordr": "0",
    "slug": "studenac-zagreb-ulica-kneza-trpimira-31-zagreb",
    "lang": "",
    "pending": null,
    "created_on": "2024-11-06 03:51:26",
    "updated_on": null
  },
  {
    "id": "411",
    "title": "STUDENAC Zagreb, Ulica Ivana Šveara 9",
    "description": "",
    "street": "Ulica Ivana Šveara 9",
    "city": "Zagreb",
    "state": "",
    "postal_code": "10000",
    "country": "53",
    "lat": "45.8078717",
    "lng": "15.9886283",
    "phone": "091 282 8823",
    "fax": "",
    "email": "",
    "website": "",
    "description_2": "",
    "logo_id": "3",
    "marker_id": "151",
    "is_disabled": "0",
    "open_hours": "{\"mon\":\"0\",\"tue\":\"0\",\"wed\":\"0\",\"thu\":\"0\",\"fri\":\"0\",\"sat\":\"0\",\"sun\":\"0\"}",
    "brand": "",
    "special": "",
    "custom": "[]",
    "ordr": "0",
    "slug": "studenac-zagreb-ulica-ivana-sveara-9-zagreb",
    "lang": "",
    "pending": null,
    "created_on": "2024-11-06 03:51:26",
    "updated_on": null
  },
  {
    "id": "412",
    "title": "STUDENAC Zagreb, Ulica Cvijete Zuzorić 29",
    "description": "",
    "street": "Ulica Cvijete Zuzorić 29",
    "city": "Zagreb",
    "state": "",
    "postal_code": "10000",
    "country": "53",
    "lat": "45.7963436",
    "lng": "15.9955282",
    "phone": "091-489-0381",
    "fax": "",
    "email": "",
    "website": "",
    "description_2": "",
    "logo_id": "3",
    "marker_id": "151",
    "is_disabled": "0",
    "open_hours": "{\"mon\":\"0\",\"tue\":\"0\",\"wed\":\"0\",\"thu\":\"0\",\"fri\":\"0\",\"sat\":\"0\",\"sun\":\"0\"}",
    "brand": "",
    "special": "",
    "custom": "[]",
    "ordr": "0",
    "slug": "studenac-zagreb-ulica-cvijete-zuzoric-29-zagreb",
    "lang": "",
    "pending": null,
    "created_on": "2024-11-06 03:51:26",
    "updated_on": null
  },
  {
    "id": "413",
    "title": "STUDENAC Zagreb, Novi Petruševec 12",
    "description": "",
    "street": "Novi Petruševec 12",
    "city": "Zagreb",
    "state": "",
    "postal_code": "10000",
    "country": "53",
    "lat": "45.7765493",
    "lng": "16.0462973",
    "phone": "091 282 8815",
    "fax": "",
    "email": "",
    "website": "",
    "description_2": "",
    "logo_id": "3",
    "marker_id": "151",
    "is_disabled": "0",
    "open_hours": "{\"mon\":\"0\",\"tue\":\"0\",\"wed\":\"0\",\"thu\":\"0\",\"fri\":\"0\",\"sat\":\"0\",\"sun\":\"0\"}",
    "brand": "",
    "special": "",
    "custom": "[]",
    "ordr": "0",
    "slug": "studenac-zagreb-novi-petrusevec-12-zagreb",
    "lang": "",
    "pending": null,
    "created_on": "2024-11-06 03:51:26",
    "updated_on": null
  },
  {
    "id": "414",
    "title": "STUDENAC Zagreb, Ulica kralja Zvonimira 57",
    "description": "",
    "street": "Ulica kralja Zvonimira 57",
    "city": "Zagreb",
    "state": "",
    "postal_code": "10000",
    "country": "53",
    "lat": "45.8111688",
    "lng": "15.9973036",
    "phone": "091 282 8813",
    "fax": "",
    "email": "",
    "website": "",
    "description_2": "",
    "logo_id": "3",
    "marker_id": "151",
    "is_disabled": "0",
    "open_hours": "{\"mon\":\"0\",\"tue\":\"0\",\"wed\":\"0\",\"thu\":\"0\",\"fri\":\"0\",\"sat\":\"0\",\"sun\":\"0\"}",
    "brand": "",
    "special": "",
    "custom": "[]",
    "ordr": "0",
    "slug": "studenac-zagreb-ulica-kralja-zvonimira-57-zagreb",
    "lang": "",
    "pending": null,
    "created_on": "2024-11-06 03:51:26",
    "updated_on": null
  },
  {
    "id": "415",
    "title": "STUDENAC Zagreb, Savska cesta 153",
    "description": "",
    "street": "Savska cesta 153",
    "city": "Zagreb",
    "state": "",
    "postal_code": "10000",
    "country": "53",
    "lat": "45.7905555",
    "lng": "15.9565769",
    "phone": "091 282 8796",
    "fax": "",
    "email": "",
    "website": "",
    "description_2": "",
    "logo_id": "3",
    "marker_id": "151",
    "is_disabled": "0",
    "open_hours": "{\"mon\":\"0\",\"tue\":\"0\",\"wed\":\"0\",\"thu\":\"0\",\"fri\":\"0\",\"sat\":\"0\",\"sun\":\"0\"}",
    "brand": "",
    "special": "",
    "custom": "[]",
    "ordr": "0",
    "slug": "studenac-zagreb-savska-cesta-153-zagreb",
    "lang": "",
    "pending": null,
    "created_on": "2024-11-06 03:51:26",
    "updated_on": null
  },
  {
    "id": "416",
    "title": "STUDENAC Zagreb, Trumbićeva ulica 10",
    "description": "",
    "street": "Trumbićeva ulica 10",
    "city": "Zagreb",
    "state": "",
    "postal_code": "10000",
    "country": "53",
    "lat": "45.7797948",
    "lng": "15.9924566",
    "phone": "091 282 8839",
    "fax": "",
    "email": "",
    "website": "",
    "description_2": "",
    "logo_id": "3",
    "marker_id": "151",
    "is_disabled": "0",
    "open_hours": "{\"mon\":\"0\",\"tue\":\"0\",\"wed\":\"0\",\"thu\":\"0\",\"fri\":\"0\",\"sat\":\"0\",\"sun\":\"0\"}",
    "brand": "",
    "special": "",
    "custom": "[]",
    "ordr": "0",
    "slug": "studenac-zagreb-trumbiceva-ulica-10-zagreb",
    "lang": "",
    "pending": null,
    "created_on": "2024-11-06 03:51:26",
    "updated_on": null
  },
  {
    "id": "417",
    "title": "STUDENAC Zagreb, Ćirilometodska ulica 8",
    "description": "",
    "street": "Ćirilometodska ulica 8",
    "city": "Zagreb",
    "state": "",
    "postal_code": "10000",
    "country": "53",
    "lat": "45.8157404",
    "lng": "15.9735854",
    "phone": "091-282-0058",
    "fax": "",
    "email": "",
    "website": "",
    "description_2": "",
    "logo_id": "3",
    "marker_id": "151",
    "is_disabled": "0",
    "open_hours": "{\"mon\":\"0\",\"tue\":\"0\",\"wed\":\"0\",\"thu\":\"0\",\"fri\":\"0\",\"sat\":\"0\",\"sun\":\"0\"}",
    "brand": "",
    "special": "",
    "custom": "[]",
    "ordr": "0",
    "slug": "studenac-zagreb-cirilometodska-ulica-8-zagreb",
    "lang": "",
    "pending": null,
    "created_on": "2024-11-06 03:51:26",
    "updated_on": null
  },
  {
    "id": "418",
    "title": "STUDENAC Zagreb, Martićeva ulica 18",
    "description": "",
    "street": "Martićeva ulica 18",
    "city": "Zagreb",
    "state": "",
    "postal_code": "10000",
    "country": "53",
    "lat": "45.8122934",
    "lng": "15.989932",
    "phone": "091 282 8827",
    "fax": "",
    "email": "",
    "website": "",
    "description_2": "",
    "logo_id": "3",
    "marker_id": "151",
    "is_disabled": "0",
    "open_hours": "{\"mon\":\"0\",\"tue\":\"0\",\"wed\":\"0\",\"thu\":\"0\",\"fri\":\"0\",\"sat\":\"0\",\"sun\":\"0\"}",
    "brand": "",
    "special": "",
    "custom": "[]",
    "ordr": "0",
    "slug": "studenac-zagreb-marticeva-ulica-18-zagreb",
    "lang": "",
    "pending": null,
    "created_on": "2024-11-06 03:51:26",
    "updated_on": null
  },
  {
    "id": "419",
    "title": "STUDENAC Zagreb, Kuzminečka ulica 10",
    "description": "",
    "street": "Kuzminečka ulica 10",
    "city": "Zagreb",
    "state": "",
    "postal_code": "10000",
    "country": "53",
    "lat": "45.7906542",
    "lng": "15.9104716",
    "phone": "091-282-8259",
    "fax": "",
    "email": "",
    "website": "",
    "description_2": "",
    "logo_id": "3",
    "marker_id": "151",
    "is_disabled": "0",
    "open_hours": "{\"mon\":\"0\",\"tue\":\"0\",\"wed\":\"0\",\"thu\":\"0\",\"fri\":\"0\",\"sat\":\"0\",\"sun\":\"0\"}",
    "brand": "",
    "special": "",
    "custom": "[]",
    "ordr": "0",
    "slug": "studenac-zagreb-kuzminecka-ulica-10-zagreb",
    "lang": "",
    "pending": null,
    "created_on": "2024-11-06 03:51:26",
    "updated_on": null
  },
  {
    "id": "420",
    "title": "STUDENAC Zagreb, Ozaljska ulica 7",
    "description": "",
    "street": "Ozaljska ulica 7",
    "city": "Zagreb",
    "state": "",
    "postal_code": "10000",
    "country": "53",
    "lat": "45.7995231",
    "lng": "15.952353",
    "phone": "091-627-8404",
    "fax": "",
    "email": "",
    "website": "",
    "description_2": "",
    "logo_id": "3",
    "marker_id": "151",
    "is_disabled": "0",
    "open_hours": "{\"mon\":\"0\",\"tue\":\"0\",\"wed\":\"0\",\"thu\":\"0\",\"fri\":\"0\",\"sat\":\"0\",\"sun\":\"0\"}",
    "brand": "",
    "special": "",
    "custom": "[]",
    "ordr": "0",
    "slug": "studenac-zagreb-ozaljska-ulica-7-zagreb",
    "lang": "",
    "pending": null,
    "created_on": "2024-11-06 03:51:26",
    "updated_on": null
  },
  {
    "id": "421",
    "title": "STUDENAC Zagreb, Slovenska ulica 2",
    "description": "",
    "street": "Slovenska ulica 2",
    "city": "Zagreb",
    "state": "",
    "postal_code": "10000",
    "country": "53",
    "lat": "45.8122762",
    "lng": "15.9520754",
    "phone": "091-627-8412",
    "fax": "",
    "email": "",
    "website": "",
    "description_2": "",
    "logo_id": "3",
    "marker_id": "151",
    "is_disabled": "0",
    "open_hours": "{\"mon\":\"0\",\"tue\":\"0\",\"wed\":\"0\",\"thu\":\"0\",\"fri\":\"0\",\"sat\":\"0\",\"sun\":\"0\"}",
    "brand": "",
    "special": "",
    "custom": "[]",
    "ordr": "0",
    "slug": "studenac-zagreb-slovenska-ulica-2-zagreb",
    "lang": "",
    "pending": null,
    "created_on": "2024-11-06 03:51:26",
    "updated_on": null
  },
  {
    "id": "422",
    "title": "STUDENAC Zagreb, Ulica Dragutina Golika 34",
    "description": "",
    "street": "Ulica Dragutina Golika 34",
    "city": "Zagreb",
    "state": "",
    "postal_code": "10000",
    "country": "53",
    "lat": "45.8021043",
    "lng": "15.9292276",
    "phone": "091-627-843",
    "fax": "",
    "email": "",
    "website": "",
    "description_2": "",
    "logo_id": "3",
    "marker_id": "151",
    "is_disabled": "0",
    "open_hours": "{\"mon\":\"0\",\"tue\":\"0\",\"wed\":\"0\",\"thu\":\"0\",\"fri\":\"0\",\"sat\":\"0\",\"sun\":\"0\"}",
    "brand": "",
    "special": "",
    "custom": "[]",
    "ordr": "0",
    "slug": "studenac-zagreb-ulica-dragutina-golika-34-zagreb",
    "lang": "",
    "pending": null,
    "created_on": "2024-11-06 03:51:26",
    "updated_on": null
  },
  {
    "id": "423",
    "title": "STUDENAC Zagreb, Maksimirska Cesta 62",
    "description": "",
    "street": "Maksimirska Cesta 62",
    "city": "Zagreb",
    "state": "",
    "postal_code": "10000",
    "country": "53",
    "lat": "45.8168241",
    "lng": "16.0051772",
    "phone": "091-672-8635",
    "fax": "",
    "email": "",
    "website": "",
    "description_2": "",
    "logo_id": "3",
    "marker_id": "151",
    "is_disabled": "0",
    "open_hours": "{\"mon\":\"0\",\"tue\":\"0\",\"wed\":\"0\",\"thu\":\"0\",\"fri\":\"0\",\"sat\":\"0\",\"sun\":\"0\"}",
    "brand": "",
    "special": "",
    "custom": "[]",
    "ordr": "0",
    "slug": "studenac-zagreb-maksimirska-cesta-62-zagreb",
    "lang": "",
    "pending": null,
    "created_on": "2024-11-06 03:51:26",
    "updated_on": null
  },
  {
    "id": "424",
    "title": "STUDENAC Zagreb, Zrinjevac 14",
    "description": "",
    "street": "Zrinjevac 14",
    "city": "Zagreb",
    "state": "",
    "postal_code": "10110",
    "country": "53",
    "lat": "45.8097849",
    "lng": "15.9775478",
    "phone": "91 282 8578",
    "fax": "",
    "email": "",
    "website": "",
    "description_2": "",
    "logo_id": "3",
    "marker_id": "151",
    "is_disabled": "0",
    "open_hours": "{\"mon\":\"0\",\"tue\":\"0\",\"wed\":\"0\",\"thu\":\"0\",\"fri\":\"0\",\"sat\":\"0\",\"sun\":\"0\"}",
    "brand": "",
    "special": "",
    "custom": "[]",
    "ordr": "0",
    "slug": "studenac-zagreb-zrinjevac-14-zagreb",
    "lang": "",
    "pending": null,
    "created_on": "2024-11-06 03:51:26",
    "updated_on": null
  },
  {
    "id": "425",
    "title": "STUDENAC Zagreb, Ilica 138",
    "description": "",
    "street": "Ilica 138",
    "city": "Zagreb",
    "state": "",
    "postal_code": "10110",
    "country": "53",
    "lat": "45.8132616",
    "lng": "15.9590503",
    "phone": "091- 282- 8555",
    "fax": "",
    "email": "",
    "website": "",
    "description_2": "",
    "logo_id": "3",
    "marker_id": "151",
    "is_disabled": "0",
    "open_hours": "{\"mon\":\"0\",\"tue\":\"0\",\"wed\":\"0\",\"thu\":\"0\",\"fri\":\"0\",\"sat\":\"0\",\"sun\":\"0\"}",
    "brand": "",
    "special": "",
    "custom": "[]",
    "ordr": "0",
    "slug": "studenac-zagreb-ilica-138-zagreb",
    "lang": "",
    "pending": null,
    "created_on": "2024-11-06 03:51:26",
    "updated_on": null
  },
  {
    "id": "426",
    "title": "STUDENAC Zagreb, Ilica 53 a",
    "description": "",
    "street": "Ilica 53 a",
    "city": "Zagreb",
    "state": "",
    "postal_code": "10110",
    "country": "53",
    "lat": "45.8130816",
    "lng": "15.9674303",
    "phone": "091-282-8554",
    "fax": "",
    "email": "",
    "website": "",
    "description_2": "",
    "logo_id": "3",
    "marker_id": "151",
    "is_disabled": "0",
    "open_hours": "{\"mon\":\"0\",\"tue\":\"0\",\"wed\":\"0\",\"thu\":\"0\",\"fri\":\"0\",\"sat\":\"0\",\"sun\":\"0\"}",
    "brand": "",
    "special": "",
    "custom": "[]",
    "ordr": "0",
    "slug": "studenac-zagreb-ilica-53-a-zagreb",
    "lang": "",
    "pending": null,
    "created_on": "2024-11-06 03:51:26",
    "updated_on": null
  },
  {
    "id": "427",
    "title": "STUDENAC Zagreb, Čazmanska ulica 2",
    "description": "",
    "street": "Čazmanska ulica 2",
    "city": "Zagreb",
    "state": "",
    "postal_code": "10000",
    "country": "53",
    "lat": "45.798608",
    "lng": "15.9717896",
    "phone": "091-489-0051",
    "fax": "",
    "email": "",
    "website": "",
    "description_2": "",
    "logo_id": "3",
    "marker_id": "151",
    "is_disabled": "0",
    "open_hours": "{\"mon\":\"0\",\"tue\":\"0\",\"wed\":\"0\",\"thu\":\"0\",\"fri\":\"0\",\"sat\":\"0\",\"sun\":\"0\"}",
    "brand": "",
    "special": "",
    "custom": "[]",
    "ordr": "0",
    "slug": "studenac-zagreb-cazmanska-ulica-2-zagreb",
    "lang": "",
    "pending": null,
    "created_on": "2024-11-06 03:51:26",
    "updated_on": null
  },
  {
    "id": "428",
    "title": "STUDENAC Zagreb, Ulica kneza Domagoja 14",
    "description": "",
    "street": "Ulica kneza Domagoja 14",
    "city": "Zagreb",
    "state": "",
    "postal_code": "10000",
    "country": "53",
    "lat": "45.8069089",
    "lng": "15.9860226",
    "phone": "091 282 8829",
    "fax": "",
    "email": "",
    "website": "",
    "description_2": "",
    "logo_id": "3",
    "marker_id": "151",
    "is_disabled": "0",
    "open_hours": "{\"mon\":\"0\",\"tue\":\"0\",\"wed\":\"0\",\"thu\":\"0\",\"fri\":\"0\",\"sat\":\"0\",\"sun\":\"0\"}",
    "brand": "",
    "special": "",
    "custom": "[]",
    "ordr": "0",
    "slug": "studenac-zagreb-ulica-kneza-domagoja-14-zagreb",
    "lang": "",
    "pending": null,
    "created_on": "2024-11-06 03:51:26",
    "updated_on": null
  },
  {
    "id": "429",
    "title": "STUDENAC Zagreb, Nehajska ulica 8",
    "description": "",
    "street": "Nehajska ulica 8",
    "city": "Zagreb",
    "state": "",
    "postal_code": "10000",
    "country": "53",
    "lat": "45.7977547",
    "lng": "15.9478533",
    "phone": "091 282 8821",
    "fax": "",
    "email": "",
    "website": "",
    "description_2": "",
    "logo_id": "3",
    "marker_id": "151",
    "is_disabled": "0",
    "open_hours": "{\"mon\":\"0\",\"tue\":\"0\",\"wed\":\"0\",\"thu\":\"0\",\"fri\":\"0\",\"sat\":\"0\",\"sun\":\"0\"}",
    "brand": "",
    "special": "",
    "custom": "[]",
    "ordr": "0",
    "slug": "studenac-zagreb-nehajska-ulica-8-zagreb",
    "lang": "",
    "pending": null,
    "created_on": "2024-11-06 03:51:26",
    "updated_on": null
  },
  {
    "id": "430",
    "title": "STUDENAC Zagreb, Draškovićeva ulica 40",
    "description": "",
    "street": "Draškovićeva ulica 40",
    "city": "Zagreb",
    "state": "",
    "postal_code": "10000",
    "country": "53",
    "lat": "45.8096683",
    "lng": "15.9834484",
    "phone": "091 282 8833",
    "fax": "",
    "email": "",
    "website": "",
    "description_2": "",
    "logo_id": "3",
    "marker_id": "151",
    "is_disabled": "0",
    "open_hours": "{\"mon\":\"0\",\"tue\":\"0\",\"wed\":\"0\",\"thu\":\"0\",\"fri\":\"0\",\"sat\":\"0\",\"sun\":\"0\"}",
    "brand": "",
    "special": "",
    "custom": "[]",
    "ordr": "0",
    "slug": "studenac-zagreb-draskoviceva-ulica-40-zagreb",
    "lang": "",
    "pending": null,
    "created_on": "2024-11-06 03:51:26",
    "updated_on": null
  },
  {
    "id": "431",
    "title": "STUDENAC Zagreb, Dubrava 47",
    "description": "",
    "street": "Dubrava 47",
    "city": "Zagreb",
    "state": "",
    "postal_code": "10000",
    "country": "53",
    "lat": "45.8286043",
    "lng": "16.0506124",
    "phone": "091-619-6856",
    "fax": "",
    "email": "",
    "website": "",
    "description_2": "",
    "logo_id": "3",
    "marker_id": "151",
    "is_disabled": "0",
    "open_hours": "{\"mon\":\"0\",\"tue\":\"0\",\"wed\":\"0\",\"thu\":\"0\",\"fri\":\"0\",\"sat\":\"0\",\"sun\":\"0\"}",
    "brand": "",
    "special": "",
    "custom": "[]",
    "ordr": "0",
    "slug": "studenac-zagreb-dubrava-47-zagreb",
    "lang": "",
    "pending": null,
    "created_on": "2024-11-06 03:51:26",
    "updated_on": null
  },
  {
    "id": "432",
    "title": "STUDENAC Zagreb, Rujanska 13",
    "description": "",
    "street": "Rujanska 13",
    "city": "Zagreb",
    "state": "",
    "postal_code": "10000",
    "country": "53",
    "lat": "45.7936552",
    "lng": "15.9215396",
    "phone": "099-260-4324",
    "fax": "",
    "email": "",
    "website": "",
    "description_2": "",
    "logo_id": "3",
    "marker_id": "151",
    "is_disabled": "0",
    "open_hours": "{\"mon\":\"0\",\"tue\":\"0\",\"wed\":\"0\",\"thu\":\"0\",\"fri\":\"0\",\"sat\":\"0\",\"sun\":\"0\"}",
    "brand": "",
    "special": "",
    "custom": "[]",
    "ordr": "0",
    "slug": "studenac-zagreb-rujanska-13-zagreb",
    "lang": "",
    "pending": null,
    "created_on": "2024-11-06 03:51:26",
    "updated_on": null
  },
  {
    "id": "433",
    "title": "STUDENAC Zagreb, Jarnovićeva 17D",
    "description": "",
    "street": "Jarnovićeva 17D",
    "city": "Zagreb",
    "state": "",
    "postal_code": "10000",
    "country": "53",
    "lat": "45.790597",
    "lng": "15.8979308",
    "phone": "099-260-4324",
    "fax": "",
    "email": "",
    "website": "",
    "description_2": "",
    "logo_id": "3",
    "marker_id": "151",
    "is_disabled": "0",
    "open_hours": "{\"mon\":\"0\",\"tue\":\"0\",\"wed\":\"0\",\"thu\":\"0\",\"fri\":\"0\",\"sat\":\"0\",\"sun\":\"0\"}",
    "brand": "",
    "special": "",
    "custom": "[]",
    "ordr": "0",
    "slug": "studenac-zagreb-jarnoviceva-17d-zagreb",
    "lang": "",
    "pending": null,
    "created_on": "2024-11-06 03:51:26",
    "updated_on": null
  },
  {
    "id": "434",
    "title": "STUDENAC Zagreb, Hrgovići 93C",
    "description": "",
    "street": "Hrgovići 93C",
    "city": "Zagreb",
    "state": "",
    "postal_code": "10000",
    "country": "53",
    "lat": "45.7827565",
    "lng": "15.9259748",
    "phone": "099-260-4324",
    "fax": "",
    "email": "",
    "website": "",
    "description_2": "",
    "logo_id": "3",
    "marker_id": "151",
    "is_disabled": "0",
    "open_hours": "{\"mon\":\"0\",\"tue\":\"0\",\"wed\":\"0\",\"thu\":\"0\",\"fri\":\"0\",\"sat\":\"0\",\"sun\":\"0\"}",
    "brand": "",
    "special": "",
    "custom": "[]",
    "ordr": "0",
    "slug": "studenac-zagreb-hrgovici-93c-zagreb",
    "lang": "",
    "pending": null,
    "created_on": "2024-11-06 03:51:26",
    "updated_on": null
  },
  {
    "id": "435",
    "title": "STUDENAC Zagreb, Prigornica ulica 3B",
    "description": "",
    "street": "Prigornica ulica 3B",
    "city": "Zagreb",
    "state": "",
    "postal_code": "10000",
    "country": "53",
    "lat": "45.8166281",
    "lng": "15.8496667",
    "phone": "091-489-0381",
    "fax": "",
    "email": "",
    "website": "",
    "description_2": "",
    "logo_id": "3",
    "marker_id": "151",
    "is_disabled": "0",
    "open_hours": "{\"mon\":\"0\",\"tue\":\"0\",\"wed\":\"0\",\"thu\":\"0\",\"fri\":\"0\",\"sat\":\"0\",\"sun\":\"0\"}",
    "brand": "",
    "special": "",
    "custom": "[]",
    "ordr": "0",
    "slug": "studenac-zagreb-prigornica-ulica-3b-zagreb",
    "lang": "",
    "pending": null,
    "created_on": "2024-11-06 03:51:26",
    "updated_on": null
  },
  {
    "id": "436",
    "title": "STUDENAC Zagreb, Kačićeva ulica 21",
    "description": "",
    "street": "Kačićeva ulica 21",
    "city": "Zagreb",
    "state": "",
    "postal_code": "10000",
    "country": "53",
    "lat": "45.8093907",
    "lng": "15.9640383",
    "phone": "091 282 8831",
    "fax": "",
    "email": "",
    "website": "",
    "description_2": "",
    "logo_id": "3",
    "marker_id": "151",
    "is_disabled": "0",
    "open_hours": "{\"mon\":\"0\",\"tue\":\"0\",\"wed\":\"0\",\"thu\":\"0\",\"fri\":\"0\",\"sat\":\"0\",\"sun\":\"0\"}",
    "brand": "",
    "special": "",
    "custom": "[]",
    "ordr": "0",
    "slug": "studenac-zagreb-kaciceva-ulica-21-zagreb",
    "lang": "",
    "pending": null,
    "created_on": "2024-11-06 03:51:26",
    "updated_on": null
  },
  {
    "id": "437",
    "title": "STUDENAC Zagreb, Hinka Wurtha 4",
    "description": "",
    "street": "Hinka Wurtha 4",
    "city": "Zagreb",
    "state": "",
    "postal_code": "10000",
    "country": "53",
    "lat": "45.7882517",
    "lng": "15.9217252",
    "phone": "099-260-4324",
    "fax": "",
    "email": "",
    "website": "",
    "description_2": "",
    "logo_id": "3",
    "marker_id": "151",
    "is_disabled": "0",
    "open_hours": "{\"mon\":\"0\",\"tue\":\"0\",\"wed\":\"0\",\"thu\":\"0\",\"fri\":\"0\",\"sat\":\"0\",\"sun\":\"0\"}",
    "brand": "",
    "special": "",
    "custom": "[]",
    "ordr": "0",
    "slug": "studenac-zagreb-hinka-wurtha-4-zagreb",
    "lang": "",
    "pending": null,
    "created_on": "2024-11-06 03:51:26",
    "updated_on": null
  },
  {
    "id": "438",
    "title": "STUDENAC Zagreb, Ulica Zvonimira Furtingera 1",
    "description": "",
    "street": "Ulica Zvonimira Furtingera 1",
    "city": "Zagreb",
    "state": "",
    "postal_code": "10000",
    "country": "53",
    "lat": "45.8073845",
    "lng": "15.903857",
    "phone": "091-489-0381",
    "fax": "",
    "email": "",
    "website": "",
    "description_2": "",
    "logo_id": "3",
    "marker_id": "151",
    "is_disabled": "0",
    "open_hours": "{\"mon\":\"0\",\"tue\":\"0\",\"wed\":\"0\",\"thu\":\"0\",\"fri\":\"0\",\"sat\":\"0\",\"sun\":\"0\"}",
    "brand": "",
    "special": "",
    "custom": "[]",
    "ordr": "0",
    "slug": "studenac-zagreb-ulica-zvonimira-furtingera-1-zagreb",
    "lang": "",
    "pending": null,
    "created_on": "2024-11-06 03:51:26",
    "updated_on": null
  },
  {
    "id": "439",
    "title": "STUDENAC Zagreb, Dubrava 214",
    "description": "",
    "street": "Dubrava 214",
    "city": "Zagreb",
    "state": "",
    "postal_code": "10040",
    "country": "53",
    "lat": "45.8285931",
    "lng": "16.0638869",
    "phone": "091-282-9013",
    "fax": "",
    "email": "",
    "website": "",
    "description_2": "",
    "logo_id": "3",
    "marker_id": "151",
    "is_disabled": "0",
    "open_hours": "{\"mon\":\"0\",\"tue\":\"0\",\"wed\":\"0\",\"thu\":\"0\",\"fri\":\"0\",\"sat\":\"0\",\"sun\":\"0\"}",
    "brand": "",
    "special": "",
    "custom": "[]",
    "ordr": "0",
    "slug": "studenac-zagreb-dubrava-214-zagreb",
    "lang": "",
    "pending": null,
    "created_on": "2024-11-06 03:51:26",
    "updated_on": null
  },
  {
    "id": "440",
    "title": "STUDENAC Zagreb, Šestinski dol 73",
    "description": "",
    "street": "Šestinski dol 73",
    "city": "Zagreb",
    "state": "",
    "postal_code": "10000",
    "country": "53",
    "lat": "45.8226159",
    "lng": "15.9434858",
    "phone": "091-489-0381",
    "fax": "",
    "email": "",
    "website": "",
    "description_2": "",
    "logo_id": "3",
    "marker_id": "151",
    "is_disabled": "0",
    "open_hours": "{\"mon\":\"0\",\"tue\":\"0\",\"wed\":\"0\",\"thu\":\"0\",\"fri\":\"0\",\"sat\":\"0\",\"sun\":\"0\"}",
    "brand": "",
    "special": "",
    "custom": "[]",
    "ordr": "0",
    "slug": "studenac-zagreb-sestinski-dol-73-zagreb",
    "lang": "",
    "pending": null,
    "created_on": "2024-11-06 03:51:26",
    "updated_on": null
  },
  {
    "id": "441",
    "title": "STUDENAC Zagreb, Peruanska ulica 6",
    "description": "",
    "street": "Peruanska ulica 6",
    "city": "Zagreb",
    "state": "",
    "postal_code": "10000",
    "country": "53",
    "lat": "45.8177084",
    "lng": "15.8787269",
    "phone": "091-489-0608",
    "fax": "",
    "email": "",
    "website": "",
    "description_2": "",
    "logo_id": "3",
    "marker_id": "151",
    "is_disabled": "0",
    "open_hours": "{\"mon\":\"0\",\"tue\":\"0\",\"wed\":\"0\",\"thu\":\"0\",\"fri\":\"0\",\"sat\":\"0\",\"sun\":\"0\"}",
    "brand": "",
    "special": "",
    "custom": "[]",
    "ordr": "0",
    "slug": "studenac-zagreb-peruanska-ulica-6-zagreb",
    "lang": "",
    "pending": null,
    "created_on": "2024-11-06 03:51:26",
    "updated_on": null
  },
  {
    "id": "442",
    "title": "STUDENAC Zagreb, Ante Topića Mimare 9",
    "description": "",
    "street": "Ante Topića Mimare 9",
    "city": "Zagreb",
    "state": "",
    "postal_code": "10000",
    "country": "53",
    "lat": "45.8081883",
    "lng": "15.8927654",
    "phone": "091-489-0607",
    "fax": "",
    "email": "",
    "website": "",
    "description_2": "",
    "logo_id": "3",
    "marker_id": "151",
    "is_disabled": "0",
    "open_hours": "{\"mon\":\"0\",\"tue\":\"0\",\"wed\":\"0\",\"thu\":\"0\",\"fri\":\"0\",\"sat\":\"0\",\"sun\":\"0\"}",
    "brand": "",
    "special": "",
    "custom": "[]",
    "ordr": "0",
    "slug": "studenac-zagreb-ante-topica-mimare-9-zagreb",
    "lang": "",
    "pending": null,
    "created_on": "2024-11-06 03:51:26",
    "updated_on": null
  },
  {
    "id": "443",
    "title": "STUDENAC Zagreb, Franje Fuisa 12",
    "description": "",
    "street": "Franje Fuisa 12",
    "city": "Zagreb",
    "state": "",
    "postal_code": "10000",
    "country": "53",
    "lat": "45.7875582",
    "lng": "15.9380528",
    "phone": "091-489-0685",
    "fax": "",
    "email": "",
    "website": "",
    "description_2": "",
    "logo_id": "3",
    "marker_id": "151",
    "is_disabled": "0",
    "open_hours": "{\"mon\":\"0\",\"tue\":\"0\",\"wed\":\"0\",\"thu\":\"0\",\"fri\":\"0\",\"sat\":\"0\",\"sun\":\"0\"}",
    "brand": "",
    "special": "",
    "custom": "[]",
    "ordr": "0",
    "slug": "studenac-zagreb-franje-fuisa-12-zagreb",
    "lang": "",
    "pending": null,
    "created_on": "2024-11-06 03:51:26",
    "updated_on": null
  },
  {
    "id": "444",
    "title": "STUDENAC Zagreb, Savska cesta 196",
    "description": "",
    "street": "Savska cesta 196",
    "city": "Zagreb",
    "state": "",
    "postal_code": "10000",
    "country": "53",
    "lat": "45.786148",
    "lng": "15.952894",
    "phone": "091 282 8841",
    "fax": "",
    "email": "",
    "website": "",
    "description_2": "",
    "logo_id": "3",
    "marker_id": "151",
    "is_disabled": "0",
    "open_hours": "{\"mon\":\"0\",\"tue\":\"0\",\"wed\":\"0\",\"thu\":\"0\",\"fri\":\"0\",\"sat\":\"0\",\"sun\":\"0\"}",
    "brand": "",
    "special": "",
    "custom": "[]",
    "ordr": "0",
    "slug": "studenac-zagreb-savska-cesta-196-zagreb",
    "lang": "",
    "pending": null,
    "created_on": "2024-11-06 03:51:26",
    "updated_on": null
  },
  {
    "id": "445",
    "title": "STUDENAC Zagreb, Porečka ulica 44",
    "description": "",
    "street": "Porečka ulica 44",
    "city": "Zagreb",
    "state": "",
    "postal_code": "10000",
    "country": "53",
    "lat": "45.8103379",
    "lng": "16.0482164",
    "phone": "091 282 8837",
    "fax": "",
    "email": "",
    "website": "",
    "description_2": "",
    "logo_id": "3",
    "marker_id": "151",
    "is_disabled": "0",
    "open_hours": "{\"mon\":\"0\",\"tue\":\"0\",\"wed\":\"0\",\"thu\":\"0\",\"fri\":\"0\",\"sat\":\"0\",\"sun\":\"0\"}",
    "brand": "",
    "special": "",
    "custom": "[]",
    "ordr": "0",
    "slug": "studenac-zagreb-porecka-ulica-44-zagreb",
    "lang": "",
    "pending": null,
    "created_on": "2024-11-06 03:51:26",
    "updated_on": null
  },
  {
    "id": "446",
    "title": "STUDENAC Zagreb, Ulica Mirka Viriusa 12",
    "description": "",
    "street": "Ulica Mirka Viriusa 12",
    "city": "Zagreb",
    "state": "",
    "postal_code": "10000",
    "country": "53",
    "lat": "45.8099853",
    "lng": "15.8910151",
    "phone": "091-489-0381",
    "fax": "",
    "email": "",
    "website": "",
    "description_2": "",
    "logo_id": "3",
    "marker_id": "151",
    "is_disabled": "0",
    "open_hours": "{\"mon\":\"0\",\"tue\":\"0\",\"wed\":\"0\",\"thu\":\"0\",\"fri\":\"0\",\"sat\":\"0\",\"sun\":\"0\"}",
    "brand": "",
    "special": "",
    "custom": "[]",
    "ordr": "0",
    "slug": "studenac-zagreb-ulica-mirka-viriusa-12-zagreb",
    "lang": "",
    "pending": null,
    "created_on": "2024-11-06 03:51:26",
    "updated_on": null
  },
  {
    "id": "447",
    "title": "STUDENAC Zaprešić, Ferde Livadića 6",
    "description": "",
    "street": "Ferde Livadića 6",
    "city": "Zaprešić",
    "state": "",
    "postal_code": "10290",
    "country": "53",
    "lat": "45.8659899",
    "lng": "15.7976186",
    "phone": "091-489-0680",
    "fax": "",
    "email": "",
    "website": "",
    "description_2": "",
    "logo_id": "3",
    "marker_id": "151",
    "is_disabled": "0",
    "open_hours": "{\"mon\":\"0\",\"tue\":\"0\",\"wed\":\"0\",\"thu\":\"0\",\"fri\":\"0\",\"sat\":\"0\",\"sun\":\"0\"}",
    "brand": "",
    "special": "",
    "custom": "[]",
    "ordr": "0",
    "slug": "studenac-zapresic-ferde-livadica-6-zapresic",
    "lang": "",
    "pending": null,
    "created_on": "2024-11-06 03:51:26",
    "updated_on": null
  },
  {
    "id": "448",
    "title": "STUDENAC Zaton, Bulet 30 A",
    "description": "",
    "street": "Bulet 30 A",
    "city": "Zaton",
    "state": "",
    "postal_code": "20235",
    "country": "53",
    "lat": "42.7012864",
    "lng": "18.0401417",
    "phone": "091 282 8668",
    "fax": "",
    "email": "",
    "website": "",
    "description_2": "",
    "logo_id": "3",
    "marker_id": "151",
    "is_disabled": "0",
    "open_hours": "{\"mon\":\"0\",\"tue\":\"0\",\"wed\":\"0\",\"thu\":\"0\",\"fri\":\"0\",\"sat\":\"0\",\"sun\":\"0\"}",
    "brand": "",
    "special": "",
    "custom": "[]",
    "ordr": "0",
    "slug": "studenac-zaton-bulet-30-a-zaton",
    "lang": "",
    "pending": null,
    "created_on": "2024-11-06 03:51:26",
    "updated_on": null
  },
  {
    "id": "449",
    "title": "STUDENAC Zverinac, Zverinac 8",
    "description": "",
    "street": "Zverinac 8",
    "city": "Zverinac",
    "state": "",
    "postal_code": "23291",
    "country": "53",
    "lat": "44.1614031",
    "lng": "14.9153878",
    "phone": "091-489-0568",
    "fax": "",
    "email": "",
    "website": "",
    "description_2": "",
    "logo_id": "3",
    "marker_id": "151",
    "is_disabled": "0",
    "open_hours": "{\"mon\":\"0\",\"tue\":\"0\",\"wed\":\"0\",\"thu\":\"0\",\"fri\":\"0\",\"sat\":\"0\",\"sun\":\"0\"}",
    "brand": "",
    "special": "",
    "custom": "[]",
    "ordr": "0",
    "slug": "studenac-zverinac-zverinac-8-zverinac",
    "lang": "",
    "pending": null,
    "created_on": "2024-11-06 03:51:26",
    "updated_on": null
  },
  {
    "id": "450",
    "title": "STUDENAC Šibenik, Draga 6",
    "description": "",
    "street": "Draga 6",
    "city": "Šibenik",
    "state": "",
    "postal_code": "22000",
    "country": "53",
    "lat": "43.7321784",
    "lng": "15.8930492",
    "phone": "091-627-8631",
    "fax": "",
    "email": "",
    "website": "",
    "description_2": "",
    "logo_id": "3",
    "marker_id": "151",
    "is_disabled": "0",
    "open_hours": "{\"mon\":\"0\",\"tue\":\"0\",\"wed\":\"0\",\"thu\":\"0\",\"fri\":\"0\",\"sat\":\"0\",\"sun\":\"0\"}",
    "brand": "",
    "special": "",
    "custom": "[]",
    "ordr": "0",
    "slug": "studenac-sibenik-draga-6-sibenik",
    "lang": "",
    "pending": null,
    "created_on": "2024-11-06 03:51:26",
    "updated_on": null
  },
  {
    "id": "451",
    "title": "STUDENAC Šibenik, Ul. 113. Šib.Brigade HV-a 205",
    "description": "",
    "street": "Ul. 113. Šib.Brigade HV-a 205",
    "city": "Šibenik",
    "state": "",
    "postal_code": "22000",
    "country": "53",
    "lat": "43.7093865",
    "lng": "15.8668699",
    "phone": "091-282-8128",
    "fax": "",
    "email": "",
    "website": "",
    "description_2": "",
    "logo_id": "3",
    "marker_id": "151",
    "is_disabled": "0",
    "open_hours": "{\"mon\":\"0\",\"tue\":\"0\",\"wed\":\"0\",\"thu\":\"0\",\"fri\":\"0\",\"sat\":\"0\",\"sun\":\"0\"}",
    "brand": "",
    "special": "",
    "custom": "[]",
    "ordr": "0",
    "slug": "studenac-sibenik-ul-113-sib-brigade-hv-a-205-sibenik",
    "lang": "",
    "pending": null,
    "created_on": "2024-11-06 03:51:26",
    "updated_on": null
  },
  {
    "id": "452",
    "title": "STUDENAC Šipanska luka, Šipanska Luka 37",
    "description": "",
    "street": "Šipanska Luka 37",
    "city": "Šipanska luka",
    "state": "",
    "postal_code": "20223",
    "country": "53",
    "lat": "42.7290478",
    "lng": "17.8630908",
    "phone": "091-489-0047",
    "fax": "",
    "email": "",
    "website": "",
    "description_2": "",
    "logo_id": "3",
    "marker_id": "151",
    "is_disabled": "0",
    "open_hours": "{\"mon\":\"0\",\"tue\":\"0\",\"wed\":\"0\",\"thu\":\"0\",\"fri\":\"0\",\"sat\":\"0\",\"sun\":\"0\"}",
    "brand": "",
    "special": "",
    "custom": "[]",
    "ordr": "0",
    "slug": "studenac-sipanska-luka-sipanska-luka-37-sipanska-luka",
    "lang": "",
    "pending": null,
    "created_on": "2024-11-06 03:51:26",
    "updated_on": null
  },
  {
    "id": "453",
    "title": "STUDENAC Živogošće, Porat 87",
    "description": "",
    "street": "Porat 87",
    "city": "Živogošće",
    "state": "",
    "postal_code": "21329",
    "country": "53",
    "lat": "43.1878716",
    "lng": "17.1605935",
    "phone": "091-282-8434",
    "fax": "",
    "email": "",
    "website": "",
    "description_2": "",
    "logo_id": "3",
    "marker_id": "151",
    "is_disabled": "0",
    "open_hours": "{\"mon\":\"0\",\"tue\":\"0\",\"wed\":\"0\",\"thu\":\"0\",\"fri\":\"0\",\"sat\":\"0\",\"sun\":\"0\"}",
    "brand": "",
    "special": "",
    "custom": "[]",
    "ordr": "0",
    "slug": "studenac-zivogosce-porat-87-zivogosce",
    "lang": "",
    "pending": null,
    "created_on": "2024-11-06 03:51:26",
    "updated_on": null
  },
  {
    "id": "454",
    "title": "STUDENAC Župa dubrovačka, Popolica 5",
    "description": "",
    "street": "Popolica 5",
    "city": "Župa dubrovačka",
    "state": "",
    "postal_code": "20207",
    "country": "53",
    "lat": "42.6255252",
    "lng": "18.1989293",
    "phone": "091-606-1599",
    "fax": "",
    "email": "",
    "website": "",
    "description_2": "",
    "logo_id": "3",
    "marker_id": "151",
    "is_disabled": "0",
    "open_hours": "{\"mon\":\"0\",\"tue\":\"0\",\"wed\":\"0\",\"thu\":\"0\",\"fri\":\"0\",\"sat\":\"0\",\"sun\":\"0\"}",
    "brand": "",
    "special": "",
    "custom": "[]",
    "ordr": "0",
    "slug": "studenac-zupa-dubrovacka-popolica-5-zupa-dubrovacka",
    "lang": "",
    "pending": null,
    "created_on": "2024-11-06 03:51:26",
    "updated_on": null
  },
  {
    "id": "455",
    "title": "STUDENAC Župa dubrovačka, Put dragovoljaca dom. rata 8",
    "description": "",
    "street": "Put dragovoljaca dom. rata 8",
    "city": "Župa dubrovačka",
    "state": "",
    "postal_code": "20207",
    "country": "53",
    "lat": "42.6293369",
    "lng": "18.1849263",
    "phone": "091 282 8670",
    "fax": "",
    "email": "",
    "website": "",
    "description_2": "",
    "logo_id": "3",
    "marker_id": "151",
    "is_disabled": "0",
    "open_hours": "{\"mon\":\"0\",\"tue\":\"0\",\"wed\":\"0\",\"thu\":\"0\",\"fri\":\"0\",\"sat\":\"0\",\"sun\":\"0\"}",
    "brand": "",
    "special": "",
    "custom": "[]",
    "ordr": "0",
    "slug": "studenac-zupa-dubrovacka-put-dragovoljaca-dom-rata-8-zupa-dubrovacka",
    "lang": "",
    "pending": null,
    "created_on": "2024-11-06 03:51:26",
    "updated_on": null
  },
  {
    "id": "456",
    "title": "KAUFLAND Karlovac - Trg Hrvatskih Branitelja 5",
    "description": "",
    "street": "Trg Hrvatskih Branitelja 5",
    "city": "Karlovac",
    "state": "",
    "postal_code": "10410",
    "country": "53",
    "lat": "45.48821419999999",
    "lng": "15.5453683",
    "phone": "",
    "fax": "",
    "email": "",
    "website": "",
    "description_2": "",
    "logo_id": "4",
    "marker_id": "151",
    "is_disabled": "0",
    "open_hours": "{\"mon\":[\"07:00 - 22:00\"],\"tue\":[\"07:00 - 22:00\"],\"wed\":[\"07:00 - 22:00\"],\"thu\":[\"07:00 - 22:00\"],\"fri\":[\"07:00 - 22:00\"],\"sat\":[\"07:00 - 22:00\"],\"sun\":\"0\"}",
    "brand": "",
    "special": "",
    "custom": "[]",
    "ordr": "0",
    "slug": "kaufland-karlovac-trg-hrvatskih-branitelja-5-karlovac",
    "lang": "",
    "pending": null,
    "created_on": "2024-11-06 03:51:26",
    "updated_on": null
  },
  {
    "id": "457",
    "title": "KAUFLAND Čakovec - Obrtnička ulica 1",
    "description": "",
    "street": "Obrtnička ulica 1",
    "city": "Čakovec",
    "state": "",
    "postal_code": "4000",
    "country": "53",
    "lat": "46.3891068",
    "lng": "16.4129825",
    "phone": "0800 223 223",
    "fax": "",
    "email": "",
    "website": "",
    "description_2": "",
    "logo_id": "4",
    "marker_id": "151",
    "is_disabled": "0",
    "open_hours": "{\"mon\":[\"07:00 - 21:00\"],\"tue\":[\"07:00 - 21:00\"],\"wed\":[\"07:00 - 21:00\"],\"thu\":[\"07:00 - 21:00\"],\"fri\":[\"07:00 - 21:00\"],\"sat\":[\"07:00 - 21:00\"],\"sun\":\"0\"}",
    "brand": "",
    "special": "",
    "custom": "[]",
    "ordr": "0",
    "slug": "kaufland-cakovec-obrtnicka-ulica-1-cakovec",
    "lang": "",
    "pending": null,
    "created_on": "2024-11-06 03:51:26",
    "updated_on": null
  },
  {
    "id": "458",
    "title": "KAUFLAND Split - 114. Brigade 6",
    "description": "",
    "street": "114. Brigade 6",
    "city": "Split",
    "state": "",
    "postal_code": "21000",
    "country": "53",
    "lat": "43.5205103",
    "lng": "16.4664849",
    "phone": "0800 223 223",
    "fax": "",
    "email": "",
    "website": "",
    "description_2": "",
    "logo_id": "4",
    "marker_id": "151",
    "is_disabled": "0",
    "open_hours": "{\"mon\":[\"07:00 - 22:00\"],\"tue\":[\"07:00 - 22:00\"],\"wed\":[\"07:00 - 22:00\"],\"thu\":[\"07:00 - 22:00\"],\"fri\":[\"07:00 - 22:00\"],\"sat\":[\"07:00 - 22:00\"],\"sun\":\"0\"}",
    "brand": "",
    "special": "",
    "custom": "[]",
    "ordr": "0",
    "slug": "kaufland-split-114-brigade-6-split",
    "lang": "",
    "pending": null,
    "created_on": "2024-11-06 03:51:26",
    "updated_on": null
  },
  {
    "id": "459",
    "title": "KAUFLAND Rijeka - Zametska 44",
    "description": "",
    "street": "Zametska 44",
    "city": "Rijeka",
    "state": "",
    "postal_code": "51000",
    "country": "53",
    "lat": "45.3409183",
    "lng": "14.3982338",
    "phone": "0800 223 223",
    "fax": "",
    "email": "",
    "website": "",
    "description_2": "",
    "logo_id": "4",
    "marker_id": "151",
    "is_disabled": "0",
    "open_hours": "{\"mon\":[\"07:00 - 22:00\"],\"tue\":[\"07:00 - 22:00\"],\"wed\":[\"07:00 - 22:00\"],\"thu\":[\"07:00 - 22:00\"],\"fri\":[\"07:00 - 22:00\"],\"sat\":[\"07:00 - 22:00\"],\"sun\":\"0\"}",
    "brand": "",
    "special": "",
    "custom": "[]",
    "ordr": "0",
    "slug": "kaufland-rijeka-zametska-44-rijeka",
    "lang": "",
    "pending": null,
    "created_on": "2024-11-06 03:51:26",
    "updated_on": null
  },
  {
    "id": "460",
    "title": "KAUFLAND Zagreb, Sloboština - Ulica Karela Zahradnika 16a",
    "description": "",
    "street": "Ulica Karela Zahradnika 16a",
    "city": "Zagreb",
    "state": "",
    "postal_code": "10000",
    "country": "53",
    "lat": "45.7614153",
    "lng": "15.9866057",
    "phone": "0800 223 223",
    "fax": "",
    "email": "",
    "website": "",
    "description_2": "",
    "logo_id": "4",
    "marker_id": "151",
    "is_disabled": "0",
    "open_hours": "{\"mon\":[\"07:00 - 22:00\"],\"tue\":[\"07:00 - 22:00\"],\"wed\":[\"07:00 - 22:00\"],\"thu\":[\"07:00 - 22:00\"],\"fri\":[\"07:00 - 22:00\"],\"sat\":[\"07:00 - 22:00\"],\"sun\":\"0\"}",
    "brand": "",
    "special": "",
    "custom": "[]",
    "ordr": "0",
    "slug": "kaufland-zagreb-slobostina-ulica-karela-zahradnika-16a-zagreb",
    "lang": "",
    "pending": null,
    "created_on": "2024-11-06 03:51:26",
    "updated_on": null
  },
  {
    "id": "461",
    "title": "KAUFLAND Zagreb, Ravnice - Branimirova 119",
    "description": "",
    "street": "Branimirova 119",
    "city": "Zagreb",
    "state": "",
    "postal_code": "10000",
    "country": "53",
    "lat": "45.8175005",
    "lng": "16.0364792",
    "phone": "0800 223 223",
    "fax": "",
    "email": "",
    "website": "",
    "description_2": "",
    "logo_id": "4",
    "marker_id": "151",
    "is_disabled": "0",
    "open_hours": "{\"mon\":[\"07:00 - 22:00\"],\"tue\":[\"07:00 - 22:00\"],\"wed\":[\"07:00 - 22:00\"],\"thu\":[\"07:00 - 22:00\"],\"fri\":[\"07:00 - 22:00\"],\"sat\":[\"07:00 - 22:00\"],\"sun\":\"0\"}",
    "brand": "",
    "special": "",
    "custom": "[]",
    "ordr": "0",
    "slug": "kaufland-zagreb-ravnice-branimirova-119-zagreb",
    "lang": "",
    "pending": null,
    "created_on": "2024-11-06 03:51:26",
    "updated_on": null
  },
  {
    "id": "462",
    "title": "KAUFLAND Zadar - Ulica Andrije Hebranga 2",
    "description": "",
    "street": "Ulica Andrije Hebranga 2",
    "city": "Zadar",
    "state": "",
    "postal_code": "23000",
    "country": "53",
    "lat": "44.1181928",
    "lng": "15.2410615",
    "phone": "0800 223 223",
    "fax": "",
    "email": "",
    "website": "",
    "description_2": "",
    "logo_id": "4",
    "marker_id": "151",
    "is_disabled": "0",
    "open_hours": "{\"mon\":[\"07:00 - 22:00\"],\"tue\":[\"07:00 - 22:00\"],\"wed\":[\"07:00 - 22:00\"],\"thu\":[\"07:00 - 22:00\"],\"fri\":[\"07:00 - 22:00\"],\"sat\":[\"07:00 - 22:00\"],\"sun\":\"0\"}",
    "brand": "",
    "special": "",
    "custom": "[]",
    "ordr": "0",
    "slug": "kaufland-zadar-ulica-andrije-hebranga-2-zadar",
    "lang": "",
    "pending": null,
    "created_on": "2024-11-06 03:51:26",
    "updated_on": null
  },
  {
    "id": "463",
    "title": "KAUFLAND Velika Gorica - Ulica kneza Ljudevita Posavskog 51",
    "description": "",
    "street": "Ulica kneza Ljudevita Posavskog 51",
    "city": "Zagreb",
    "state": "",
    "postal_code": "10410",
    "country": "53",
    "lat": "45.7183406",
    "lng": "16.0540592",
    "phone": "0800 223 223",
    "fax": "",
    "email": "",
    "website": "",
    "description_2": "",
    "logo_id": "4",
    "marker_id": "151",
    "is_disabled": "0",
    "open_hours": "{\"mon\":[\"07:00 - 22:00\"],\"tue\":[\"07:00 - 22:00\"],\"wed\":[\"07:00 - 22:00\"],\"thu\":[\"07:00 - 22:00\"],\"fri\":[\"07:00 - 22:00\"],\"sat\":[\"07:00 - 22:00\"],\"sun\":\"0\"}",
    "brand": "",
    "special": "",
    "custom": "[]",
    "ordr": "0",
    "slug": "kaufland-velika-gorica-ulica-kneza-ljudevita-posavskog-51-zagreb",
    "lang": "",
    "pending": null,
    "created_on": "2024-11-06 03:51:26",
    "updated_on": null
  },
  {
    "id": "464",
    "title": "KAUFLAND Varaždin Banfica - Koprivnička 17",
    "description": "",
    "street": "Koprivnička 17",
    "city": "Varaždin",
    "state": "",
    "postal_code": "42000",
    "country": "53",
    "lat": "46.3151022",
    "lng": "16.3373137",
    "phone": "0800 223 223",
    "fax": "",
    "email": "",
    "website": "",
    "description_2": "",
    "logo_id": "4",
    "marker_id": "151",
    "is_disabled": "0",
    "open_hours": "{\"mon\":[\"07:00 - 21:00\"],\"tue\":[\"07:00 - 21:00\"],\"wed\":[\"07:00 - 21:00\"],\"thu\":[\"07:00 - 21:00\"],\"fri\":[\"07:00 - 21:00\"],\"sat\":[\"07:00 - 21:00\"],\"sun\":\"0\"}",
    "brand": "",
    "special": "",
    "custom": "[]",
    "ordr": "0",
    "slug": "kaufland-varazdin-banfica-koprivnicka-17-varazdin",
    "lang": "",
    "pending": null,
    "created_on": "2024-11-06 03:51:26",
    "updated_on": null
  },
  {
    "id": "465",
    "title": "KAUFLAND Šibenik - Vukovarska ulica 10",
    "description": "",
    "street": "Vukovarska ulica 10",
    "city": "Šibenik",
    "state": "",
    "postal_code": "22000",
    "country": "53",
    "lat": "43.7227926",
    "lng": "15.9061378",
    "phone": "0800 223 223",
    "fax": "",
    "email": "",
    "website": "",
    "description_2": "",
    "logo_id": "4",
    "marker_id": "151",
    "is_disabled": "0",
    "open_hours": "{\"mon\":[\"07:00 - 22:00\"],\"tue\":[\"07:00 - 22:00\"],\"wed\":[\"07:00 - 22:00\"],\"thu\":[\"07:00 - 22:00\"],\"fri\":[\"07:00 - 22:00\"],\"sat\":[\"07:00 - 22:00\"],\"sun\":\"0\"}",
    "brand": "",
    "special": "",
    "custom": "[]",
    "ordr": "0",
    "slug": "kaufland-sibenik-vukovarska-ulica-10-sibenik",
    "lang": "",
    "pending": null,
    "created_on": "2024-11-06 03:51:26",
    "updated_on": null
  },
  {
    "id": "466",
    "title": "KAUFLAND Pula - Ulica Jurja Žakna 3",
    "description": "",
    "street": "Ulica Jurja Žakna 3",
    "city": "Pula",
    "state": "",
    "postal_code": "52100",
    "country": "53",
    "lat": "44.8785603",
    "lng": "13.8629242",
    "phone": "0800 223 223",
    "fax": "",
    "email": "",
    "website": "",
    "description_2": "",
    "logo_id": "4",
    "marker_id": "151",
    "is_disabled": "0",
    "open_hours": "{\"mon\":[\"07:00 - 22:00\"],\"tue\":[\"07:00 - 22:00\"],\"wed\":[\"07:00 - 22:00\"],\"thu\":[\"07:00 - 22:00\"],\"fri\":[\"07:00 - 22:00\"],\"sat\":[\"07:00 - 22:00\"],\"sun\":\"0\"}",
    "brand": "",
    "special": "",
    "custom": "[]",
    "ordr": "0",
    "slug": "kaufland-pula-ulica-jurja-zakna-3-pula",
    "lang": "",
    "pending": null,
    "created_on": "2024-11-06 03:51:26",
    "updated_on": null
  },
  {
    "id": "467",
    "title": "KAUFLAND Slavonski Brod - Naselje Slavonija II, 5",
    "description": "",
    "street": "Naselje Slavonija II, 5",
    "city": "Slavonski Brod",
    "state": "",
    "postal_code": "35000",
    "country": "53",
    "lat": "45.1626462",
    "lng": "18.0188096",
    "phone": "0800 223 223",
    "fax": "",
    "email": "",
    "website": "",
    "description_2": "",
    "logo_id": "4",
    "marker_id": "151",
    "is_disabled": "0",
    "open_hours": "{\"mon\":[\"07:00 - 22:00\"],\"tue\":[\"07:00 - 22:00\"],\"wed\":[\"07:00 - 22:00\"],\"thu\":[\"07:00 - 22:00\"],\"fri\":[\"07:00 - 22:00\"],\"sat\":[\"07:00 - 22:00\"],\"sun\":\"0\"}",
    "brand": "",
    "special": "",
    "custom": "[]",
    "ordr": "0",
    "slug": "kaufland-slavonski-brod-naselje-slavonija-ii-5-slavonski-brod",
    "lang": "",
    "pending": null,
    "created_on": "2024-11-06 03:51:26",
    "updated_on": null
  },
  {
    "id": "468",
    "title": "KAUFLAND Bjelovar - Ulica Vlahe Paljetka 4",
    "description": "",
    "street": "Ulica Vlahe Paljetka 4",
    "city": "Bjelovar",
    "state": "",
    "postal_code": "43000",
    "country": "53",
    "lat": "45.9033867",
    "lng": "16.8523047",
    "phone": "0800 223 223",
    "fax": "",
    "email": "",
    "website": "",
    "description_2": "",
    "logo_id": "4",
    "marker_id": "151",
    "is_disabled": "0",
    "open_hours": "{\"mon\":[\"07:00 - 21:00\"],\"tue\":[\"07:00 - 21:00\"],\"wed\":[\"07:00 - 21:00\"],\"thu\":[\"07:00 - 21:00\"],\"fri\":[\"07:00 - 21:00\"],\"sat\":[\"07:00 - 21:00\"],\"sun\":\"0\"}",
    "brand": "",
    "special": "",
    "custom": "[]",
    "ordr": "0",
    "slug": "kaufland-bjelovar-ulica-vlahe-paljetka-4-bjelovar",
    "lang": "",
    "pending": null,
    "created_on": "2024-11-06 03:51:26",
    "updated_on": null
  },
  {
    "id": "469",
    "title": "KAUFLAND Osijek - Ulica Josipa Reihl-Kira 40",
    "description": "",
    "street": "Ulica Josipa Reihl-Kira 40",
    "city": "Osijek",
    "state": "",
    "postal_code": "31000",
    "country": "53",
    "lat": "45.5445046",
    "lng": "18.7093758",
    "phone": "0800 223 223",
    "fax": "",
    "email": "",
    "website": "",
    "description_2": "",
    "logo_id": "4",
    "marker_id": "151",
    "is_disabled": "0",
    "open_hours": "{\"mon\":[\"07:00 - 22:00\"],\"tue\":[\"07:00 - 22:00\"],\"wed\":[\"07:00 - 22:00\"],\"thu\":[\"07:00 - 22:00\"],\"fri\":[\"07:00 - 22:00\"],\"sat\":[\"07:00 - 22:00\"],\"sun\":\"0\"}",
    "brand": "",
    "special": "",
    "custom": "[]",
    "ordr": "0",
    "slug": "kaufland-osijek-ulica-josipa-reihl-kira-40-osijek",
    "lang": "",
    "pending": null,
    "created_on": "2024-11-06 03:51:26",
    "updated_on": null
  },
  {
    "id": "470",
    "title": "KAUFLAND Zagreb, Sesvete - Bistrička ulica 6",
    "description": "",
    "street": "Bistrička ulica 6",
    "city": "Zagreb",
    "state": "",
    "postal_code": "10360",
    "country": "53",
    "lat": "45.8332213",
    "lng": "16.1080293",
    "phone": "0800 223 223",
    "fax": "",
    "email": "",
    "website": "",
    "description_2": "",
    "logo_id": "4",
    "marker_id": "151",
    "is_disabled": "0",
    "open_hours": "{\"mon\":[\"07:00 - 22:00\"],\"tue\":[\"07:00 - 22:00\"],\"wed\":[\"07:00 - 22:00\"],\"thu\":[\"07:00 - 22:00\"],\"fri\":[\"07:00 - 22:00\"],\"sat\":[\"07:00 - 22:00\"],\"sun\":\"0\"}",
    "brand": "",
    "special": "",
    "custom": "[]",
    "ordr": "0",
    "slug": "kaufland-zagreb-sesvete-bistricka-ulica-6-zagreb",
    "lang": "",
    "pending": null,
    "created_on": "2024-11-06 03:51:26",
    "updated_on": null
  },
  {
    "id": "471",
    "title": "KAUFLAND Zagreb - Ulica Vile Velebita 6",
    "description": "",
    "street": "Ulica Vile Velebita 6",
    "city": "Zagreb",
    "state": "",
    "postal_code": "10040",
    "country": "53",
    "lat": "45.83623910000001",
    "lng": "16.0591363",
    "phone": "0800 223 223",
    "fax": "",
    "email": "",
    "website": "",
    "description_2": "",
    "logo_id": "4",
    "marker_id": "151",
    "is_disabled": "0",
    "open_hours": "{\"mon\":[\"07:00 - 22:00\"],\"tue\":[\"07:00 - 22:00\"],\"wed\":[\"07:00 - 22:00\"],\"thu\":[\"07:00 - 22:00\"],\"fri\":[\"07:00 - 22:00\"],\"sat\":[\"07:00 - 22:00\"],\"sun\":\"0\"}",
    "brand": "",
    "special": "",
    "custom": "[]",
    "ordr": "0",
    "slug": "kaufland-zagreb-ulica-vile-velebita-6-zagreb",
    "lang": "",
    "pending": null,
    "created_on": "2024-11-06 03:51:26",
    "updated_on": null
  },
  {
    "id": "472",
    "title": "KAUFLAND Rovinj - Aleja Ruđera Boškovića Ulica Spine, Via Spine 2",
    "description": "",
    "street": "Aleja Ruđera Boškovića Ulica Spine, Via Spine 2",
    "city": "Rovinj",
    "state": "",
    "postal_code": "52210",
    "country": "53",
    "lat": "45.0905004",
    "lng": "13.6563869",
    "phone": "0800 223 223",
    "fax": "",
    "email": "",
    "website": "",
    "description_2": "",
    "logo_id": "4",
    "marker_id": "151",
    "is_disabled": "0",
    "open_hours": "{\"mon\":[\"07:00 - 21:00\"],\"tue\":[\"07:00 - 21:00\"],\"wed\":[\"07:00 - 21:00\"],\"thu\":[\"07:00 - 21:00\"],\"fri\":[\"07:00 - 21:00\"],\"sat\":[\"07:00 - 21:00\"],\"sun\":\"0\"}",
    "brand": "",
    "special": "",
    "custom": "[]",
    "ordr": "0",
    "slug": "kaufland-rovinj-aleja-rudera-boskovica-ulica-spine-via-spine-2-rovinj",
    "lang": "",
    "pending": null,
    "created_on": "2024-11-06 03:51:26",
    "updated_on": null
  },
  {
    "id": "473",
    "title": "KAUFLAND Trogir - Ulica kneza Trpimira 301",
    "description": "",
    "street": "Ulica kneza Trpimira 301",
    "city": "Trogir",
    "state": "",
    "postal_code": "21220",
    "country": "53",
    "lat": "43.5333504",
    "lng": "16.2807539",
    "phone": "0800 223 223",
    "fax": "",
    "email": "",
    "website": "",
    "description_2": "",
    "logo_id": "4",
    "marker_id": "151",
    "is_disabled": "0",
    "open_hours": "{\"mon\":[\"07:00 - 22:00\"],\"tue\":[\"07:00 - 22:00\"],\"wed\":[\"07:00 - 22:00\"],\"thu\":[\"07:00 - 22:00\"],\"fri\":[\"07:00 - 22:00\"],\"sat\":[\"07:00 - 22:00\"],\"sun\":\"0\"}",
    "brand": "",
    "special": "",
    "custom": "[]",
    "ordr": "0",
    "slug": "kaufland-trogir-ulica-kneza-trpimira-301-trogir",
    "lang": "",
    "pending": null,
    "created_on": "2024-11-06 03:51:26",
    "updated_on": null
  },
  {
    "id": "474",
    "title": "KAUFLAND Zagreb, Središće - Ulica Julija Knifera 1",
    "description": "",
    "street": "Ulica Julija Knifera 1",
    "city": "Zagreb",
    "state": "",
    "postal_code": "10010",
    "country": "53",
    "lat": "45.7792294",
    "lng": "15.9851546",
    "phone": "0800 223 223",
    "fax": "",
    "email": "",
    "website": "",
    "description_2": "",
    "logo_id": "4",
    "marker_id": "151",
    "is_disabled": "0",
    "open_hours": "{\"mon\":[\"07:00 - 22:00\"],\"tue\":[\"07:00 - 22:00\"],\"wed\":[\"07:00 - 22:00\"],\"thu\":[\"07:00 - 22:00\"],\"fri\":[\"07:00 - 22:00\"],\"sat\":[\"07:00 - 22:00\"],\"sun\":\"0\"}",
    "brand": "",
    "special": "",
    "custom": "[]",
    "ordr": "0",
    "slug": "kaufland-zagreb-sredisce-ulica-julija-knifera-1-zagreb",
    "lang": "",
    "pending": null,
    "created_on": "2024-11-06 03:51:26",
    "updated_on": null
  },
  {
    "id": "475",
    "title": "KAUFLAND Poreč - Ulica Mate Vlašića 55",
    "description": "",
    "street": "Ulica Mate Vlašića 55",
    "city": "Poreč",
    "state": "",
    "postal_code": "52440",
    "country": "53",
    "lat": "45.2315013",
    "lng": "13.6213485",
    "phone": "0800 223 223",
    "fax": "",
    "email": "",
    "website": "",
    "description_2": "",
    "logo_id": "4",
    "marker_id": "151",
    "is_disabled": "0",
    "open_hours": "{\"mon\":[\"07:00 - 22:00\"],\"tue\":[\"07:00 - 22:00\"],\"wed\":[\"07:00 - 22:00\"],\"thu\":[\"07:00 - 22:00\"],\"fri\":[\"07:00 - 22:00\"],\"sat\":[\"07:00 - 22:00\"],\"sun\":\"0\"}",
    "brand": "",
    "special": "",
    "custom": "[]",
    "ordr": "0",
    "slug": "kaufland-porec-ulica-mate-vlasica-55-porec",
    "lang": "",
    "pending": null,
    "created_on": "2024-11-06 03:51:26",
    "updated_on": null
  },
  {
    "id": "476",
    "title": "KAUFLAND Zagreb, Blato - Jaruščica 6",
    "description": "",
    "street": "Jaruščica 6",
    "city": "Zagreb",
    "state": "",
    "postal_code": "10000",
    "country": "53",
    "lat": "45.7691658",
    "lng": "15.9333026",
    "phone": "0800 223 223",
    "fax": "",
    "email": "",
    "website": "",
    "description_2": "",
    "logo_id": "4",
    "marker_id": "151",
    "is_disabled": "0",
    "open_hours": "{\"mon\":[\"07:00 - 22:00\"],\"tue\":[\"07:00 - 22:00\"],\"wed\":[\"07:00 - 22:00\"],\"thu\":[\"07:00 - 22:00\"],\"fri\":[\"07:00 - 22:00\"],\"sat\":[\"07:00 - 22:00\"],\"sun\":\"0\"}",
    "brand": "",
    "special": "",
    "custom": "[]",
    "ordr": "0",
    "slug": "kaufland-zagreb-blato-jaruscica-6-zagreb",
    "lang": "",
    "pending": null,
    "created_on": "2024-11-06 03:51:26",
    "updated_on": null
  },
  {
    "id": "477",
    "title": "KAUFLAND Zagreb, Jankomir - Ulica Antuna Šoljana 43",
    "description": "",
    "street": "Ulica Antuna Šoljana 43",
    "city": "Zagreb",
    "state": "",
    "postal_code": "10000",
    "country": "53",
    "lat": "45.8034453",
    "lng": "15.8770448",
    "phone": "0800 223 223",
    "fax": "",
    "email": "",
    "website": "",
    "description_2": "",
    "logo_id": "4",
    "marker_id": "151",
    "is_disabled": "0",
    "open_hours": "{\"mon\":[\"07:00 - 22:00\"],\"tue\":[\"07:00 - 22:00\"],\"wed\":[\"07:00 - 22:00\"],\"thu\":[\"07:00 - 22:00\"],\"fri\":[\"07:00 - 22:00\"],\"sat\":[\"07:00 - 22:00\"],\"sun\":\"0\"}",
    "brand": "",
    "special": "",
    "custom": "[]",
    "ordr": "0",
    "slug": "kaufland-zagreb-jankomir-ulica-antuna-soljana-43-zagreb",
    "lang": "",
    "pending": null,
    "created_on": "2024-11-06 03:51:26",
    "updated_on": null
  },
  {
    "id": "478",
    "title": "KAUFLAND Zagreb - Zagrebačka cesta 136",
    "description": "",
    "street": "Zagrebačka cesta 136",
    "city": "Zagreb",
    "state": "",
    "postal_code": "10000",
    "country": "53",
    "lat": "45.8050625",
    "lng": "15.920468",
    "phone": "0800 223 223",
    "fax": "",
    "email": "",
    "website": "",
    "description_2": "",
    "logo_id": "4",
    "marker_id": "151",
    "is_disabled": "0",
    "open_hours": "{\"mon\":[\"07:00 - 22:00\"],\"tue\":[\"07:00 - 22:00\"],\"wed\":[\"07:00 - 22:00\"],\"thu\":[\"07:00 - 22:00\"],\"fri\":[\"07:00 - 22:00\"],\"sat\":[\"07:00 - 22:00\"],\"sun\":\"0\"}",
    "brand": "",
    "special": "",
    "custom": "[]",
    "ordr": "0",
    "slug": "kaufland-zagreb-zagrebacka-cesta-136-zagreb",
    "lang": "",
    "pending": null,
    "created_on": "2024-11-06 03:51:26",
    "updated_on": null
  },
  {
    "id": "479",
    "title": "KAUFLAND Zagreb, Jablanska 80",
    "description": "",
    "street": "Jablanska 80",
    "city": "Zagreb",
    "state": "",
    "postal_code": "10000",
    "country": "53",
    "lat": "45.7965423",
    "lng": "15.918933",
    "phone": "0800 223 223",
    "fax": "",
    "email": "",
    "website": "",
    "description_2": "",
    "logo_id": "4",
    "marker_id": "151",
    "is_disabled": "0",
    "open_hours": "{\"mon\":[\"07:00 - 22:00\"],\"tue\":[\"07:00 - 22:00\"],\"wed\":[\"07:00 - 22:00\"],\"thu\":[\"07:00 - 22:00\"],\"fri\":[\"07:00 - 22:00\"],\"sat\":[\"07:00 - 22:00\"],\"sun\":\"0\"}",
    "brand": "",
    "special": "",
    "custom": "[]",
    "ordr": "0",
    "slug": "kaufland-zagreb-jablanska-80-zagreb",
    "lang": "",
    "pending": null,
    "created_on": "2024-11-06 03:51:26",
    "updated_on": null
  },
  {
    "id": "480",
    "title": "KAUFLAND Umag - Novigradska ulica 22",
    "description": "",
    "street": "Novigradska ulica 22",
    "city": "Umag",
    "state": "",
    "postal_code": "52470",
    "country": "53",
    "lat": "45.4229903",
    "lng": "13.5272052",
    "phone": "0800 223 223",
    "fax": "",
    "email": "",
    "website": "",
    "description_2": "",
    "logo_id": "4",
    "marker_id": "151",
    "is_disabled": "0",
    "open_hours": "{\"mon\":[\"07:00 - 22:00\"],\"tue\":[\"07:00 - 22:00\"],\"wed\":[\"07:00 - 22:00\"],\"thu\":[\"07:00 - 22:00\"],\"fri\":[\"07:00 - 22:00\"],\"sat\":[\"07:00 - 22:00\"],\"sun\":\"0\"}",
    "brand": "",
    "special": "",
    "custom": "[]",
    "ordr": "0",
    "slug": "kaufland-umag-novigradska-ulica-22-umag",
    "lang": "",
    "pending": null,
    "created_on": "2024-11-06 03:51:26",
    "updated_on": null
  },
  {
    "id": "481",
    "title": "KAUFLAND Zadar, Ulica 4. Gardijske Brigade 69",
    "description": "",
    "street": "Ulica 4. Gardijske Brigade 69",
    "city": "Zadar",
    "state": "",
    "postal_code": "23000",
    "country": "53",
    "lat": "44.10524059999999",
    "lng": "15.2636632",
    "phone": "0800 223 223",
    "fax": "",
    "email": "",
    "website": "",
    "description_2": "",
    "logo_id": "4",
    "marker_id": "151",
    "is_disabled": "0",
    "open_hours": "{\"mon\":[\"07:00 - 22:00\"],\"tue\":[\"07:00 - 22:00\"],\"wed\":[\"07:00 - 22:00\"],\"thu\":[\"07:00 - 22:00\"],\"fri\":[\"07:00 - 22:00\"],\"sat\":[\"07:00 - 22:00\"],\"sun\":\"0\"}",
    "brand": "",
    "special": "",
    "custom": "[]",
    "ordr": "0",
    "slug": "kaufland-zadar-ulica-4-gardijske-brigade-69-zadar",
    "lang": "",
    "pending": null,
    "created_on": "2024-11-06 03:51:26",
    "updated_on": null
  },
  {
    "id": "482",
    "title": "KAUFLAND Zagreb, Barutanski Jarak 54",
    "description": "",
    "street": "Barutanski Jarak 54",
    "city": "Zagreb",
    "state": "",
    "postal_code": "10000",
    "country": "53",
    "lat": "45.827473",
    "lng": "16.0076489",
    "phone": "0800 223 223",
    "fax": "",
    "email": "",
    "website": "",
    "description_2": "",
    "logo_id": "4",
    "marker_id": "151",
    "is_disabled": "0",
    "open_hours": "{\"mon\":[\"07:00 - 22:00\"],\"tue\":[\"07:00 - 22:00\"],\"wed\":[\"07:00 - 22:00\"],\"thu\":[\"07:00 - 22:00\"],\"fri\":[\"07:00 - 22:00\"],\"sat\":[\"07:00 - 22:00\"],\"sun\":\"0\"}",
    "brand": "",
    "special": "",
    "custom": "[]",
    "ordr": "0",
    "slug": "kaufland-zagreb-barutanski-jarak-54-zagreb",
    "lang": "",
    "pending": null,
    "created_on": "2024-11-06 03:51:26",
    "updated_on": null
  },
  {
    "id": "483",
    "title": "KAUFLAND Rijeka, Škurinje - Osiječka 39",
    "description": "",
    "street": "Osiječka 39",
    "city": "Rijeka",
    "state": "",
    "postal_code": "51000",
    "country": "53",
    "lat": "45.3410967",
    "lng": "14.4255147",
    "phone": "0800 223 223",
    "fax": "",
    "email": "",
    "website": "",
    "description_2": "",
    "logo_id": "4",
    "marker_id": "151",
    "is_disabled": "0",
    "open_hours": "{\"mon\":[\"07:00 - 22:00\"],\"tue\":[\"07:00 - 22:00\"],\"wed\":[\"07:00 - 22:00\"],\"thu\":[\"07:00 - 22:00\"],\"fri\":[\"07:00 - 22:00\"],\"sat\":[\"07:00 - 22:00\"],\"sun\":\"0\"}",
    "brand": "",
    "special": "",
    "custom": "[]",
    "ordr": "0",
    "slug": "kaufland-rijeka-skurinje-osijecka-39-rijeka",
    "lang": "",
    "pending": null,
    "created_on": "2024-11-06 03:51:26",
    "updated_on": null
  },
  {
    "id": "484",
    "title": "KAUFLAND Biograd na Moru - D8 1",
    "description": "",
    "street": "D8 1",
    "city": "Biograd na Moru",
    "state": "",
    "postal_code": "23210",
    "country": "53",
    "lat": "43.9451135",
    "lng": "15.4531149",
    "phone": "0800 223 223",
    "fax": "",
    "email": "",
    "website": "",
    "description_2": "",
    "logo_id": "4",
    "marker_id": "151",
    "is_disabled": "0",
    "open_hours": "{\"mon\":[\"07:00 - 22:00\"],\"tue\":[\"07:00 - 22:00\"],\"wed\":[\"07:00 - 22:00\"],\"thu\":[\"07:00 - 22:00\"],\"fri\":[\"07:00 - 22:00\"],\"sat\":[\"07:00 - 22:00\"],\"sun\":\"0\"}",
    "brand": "",
    "special": "",
    "custom": "[]",
    "ordr": "0",
    "slug": "kaufland-biograd-na-moru-d8-1-biograd-na-moru",
    "lang": "",
    "pending": null,
    "created_on": "2024-11-06 03:51:26",
    "updated_on": null
  },
  {
    "id": "485",
    "title": "KAUFLAND Vodice - Put Gaćeleza 1d",
    "description": "",
    "street": "Put Gaćeleza 1d",
    "city": "Vodice",
    "state": "",
    "postal_code": "22211",
    "country": "53",
    "lat": "43.7672317",
    "lng": "15.7729581",
    "phone": "0800 223 223",
    "fax": "",
    "email": "",
    "website": "",
    "description_2": "",
    "logo_id": "4",
    "marker_id": "151",
    "is_disabled": "0",
    "open_hours": "{\"mon\":[\"07:00 - 22:00\"],\"tue\":[\"07:00 - 22:00\"],\"wed\":[\"07:00 - 22:00\"],\"thu\":[\"07:00 - 22:00\"],\"fri\":[\"07:00 - 22:00\"],\"sat\":[\"07:00 - 22:00\"],\"sun\":\"0\"}",
    "brand": "",
    "special": "",
    "custom": "[]",
    "ordr": "0",
    "slug": "kaufland-vodice-put-gaceleza-1d-vodice",
    "lang": "",
    "pending": null,
    "created_on": "2024-11-06 03:51:26",
    "updated_on": null
  },
  {
    "id": "486",
    "title": "KAUFLAND Varaždin, Biškupec - Varteksova 2",
    "description": "",
    "street": "Varteksova 2",
    "city": "Varaždin",
    "state": "",
    "postal_code": "42000",
    "country": "53",
    "lat": "46.2912204",
    "lng": "16.3435175",
    "phone": "0800 223 223",
    "fax": "",
    "email": "",
    "website": "",
    "description_2": "",
    "logo_id": "4",
    "marker_id": "151",
    "is_disabled": "0",
    "open_hours": "{\"mon\":[\"07:00 - 21:00\"],\"tue\":[\"07:00 - 21:00\"],\"wed\":[\"07:00 - 21:00\"],\"thu\":[\"07:00 - 21:00\"],\"fri\":[\"07:00 - 21:00\"],\"sat\":[\"07:00 - 21:00\"],\"sun\":\"0\"}",
    "brand": "",
    "special": "",
    "custom": "[]",
    "ordr": "0",
    "slug": "kaufland-varazdin-biskupec-varteksova-2-varazdin",
    "lang": "",
    "pending": null,
    "created_on": "2024-11-06 03:51:26",
    "updated_on": null
  },
  {
    "id": "487",
    "title": "KAUFLAND Zagreb, Peščenica - Planinska ulica 2f",
    "description": "",
    "street": "Planinska ulica 2f",
    "city": "Zagreb",
    "state": "",
    "postal_code": "10000",
    "country": "53",
    "lat": "45.80861960000001",
    "lng": "16.0133059",
    "phone": "0800 223 223",
    "fax": "",
    "email": "",
    "website": "",
    "description_2": "",
    "logo_id": "4",
    "marker_id": "151",
    "is_disabled": "0",
    "open_hours": "{\"mon\":[\"07:00 - 22:00\"],\"tue\":[\"07:00 - 22:00\"],\"wed\":[\"07:00 - 22:00\"],\"thu\":[\"07:00 - 22:00\"],\"fri\":[\"07:00 - 22:00\"],\"sat\":[\"07:00 - 22:00\"],\"sun\":\"0\"}",
    "brand": "",
    "special": "",
    "custom": "[]",
    "ordr": "0",
    "slug": "kaufland-zagreb-pescenica-planinska-ulica-2f-zagreb",
    "lang": "",
    "pending": null,
    "created_on": "2024-11-06 03:51:26",
    "updated_on": null
  },
  {
    "id": "488",
    "title": "KAUFLAND Zabok - Josipa Broza Tita 25",
    "description": "",
    "street": "Josipa Broza Tita 25",
    "city": "Zabok",
    "state": "",
    "postal_code": "49210",
    "country": "53",
    "lat": "46.0228859",
    "lng": "15.9072417",
    "phone": "0800 223 223",
    "fax": "",
    "email": "",
    "website": "",
    "description_2": "",
    "logo_id": "4",
    "marker_id": "151",
    "is_disabled": "0",
    "open_hours": "{\"mon\":[\"07:00 - 21:00\"],\"tue\":[\"07:00 - 21:00\"],\"wed\":[\"07:00 - 21:00\"],\"thu\":[\"07:00 - 21:00\"],\"fri\":[\"07:00 - 21:00\"],\"sat\":[\"07:00 - 21:00\"],\"sun\":\"0\"}",
    "brand": "",
    "special": "",
    "custom": "[]",
    "ordr": "0",
    "slug": "kaufland-zabok-josipa-broza-tita-25-zabok",
    "lang": "",
    "pending": null,
    "created_on": "2024-11-06 03:51:26",
    "updated_on": null
  },
  {
    "id": "489",
    "title": "KAUFLAND Dubrovnik, Župa dubrovačka - Sima Savinovića 2",
    "description": "",
    "street": "Sima Savinovića 2",
    "city": "Dubrovnik",
    "state": "",
    "postal_code": "20207",
    "country": "53",
    "lat": "42.631362",
    "lng": "18.1632248",
    "phone": "0800 223 223",
    "fax": "",
    "email": "",
    "website": "",
    "description_2": "",
    "logo_id": "4",
    "marker_id": "151",
    "is_disabled": "0",
    "open_hours": "{\"mon\":[\"07:00 - 21:00\"],\"tue\":[\"07:00 - 21:00\"],\"wed\":[\"07:00 - 21:00\"],\"thu\":[\"07:00 - 21:00\"],\"fri\":[\"07:00 - 21:00\"],\"sat\":[\"07:00 - 21:00\"],\"sun\":\"0\"}",
    "brand": "",
    "special": "",
    "custom": "[]",
    "ordr": "0",
    "slug": "kaufland-dubrovnik-zupa-dubrovacka-sima-savinovica-2-dubrovnik",
    "lang": "",
    "pending": null,
    "created_on": "2024-11-06 03:51:26",
    "updated_on": null
  }
]